postcode,commune,longitude,latitude,result_score,result_score_next,result_label,result_type,result_id,result_housenumber,result_name,result_street,result_postcode,result_city,result_context,result_citycode,result_oldcitycode,result_oldcity,result_district,result_status
79000,Niort,-0.466291,46.327232,0.9540545454545454,0.5188845454545454,Niort,municipality,79191,,Niort,,79000,Niort,"79, Deux-Sèvres, Nouvelle-Aquitaine",79191,,,,ok
79000,Niort,-0.466291,46.327232,0.9540545454545454,0.5188845454545454,Niort,municipality,79191,,Niort,,79000,Niort,"79, Deux-Sèvres, Nouvelle-Aquitaine",79191,,,,ok
79000,Niort,-0.466291,46.327232,0.9540545454545454,0.5188845454545454,Niort,municipality,79191,,Niort,,79000,Niort,"79, Deux-Sèvres, Nouvelle-Aquitaine",79191,,,,ok
79000,Niort,-0.466291,46.327232,0.9540545454545454,0.5188845454545454,Niort,municipality,79191,,Niort,,79000,Niort,"79, Deux-Sèvres, Nouvelle-Aquitaine",79191,,,,ok
79000,Niort,-0.466291,46.327232,0.9540545454545454,0.5188845454545454,Niort,municipality,79191,,Niort,,79000,Niort,"79, Deux-Sèvres, Nouvelle-Aquitaine",79191,,,,ok
79000,Sciecq,-0.475373,46.373166,0.9335799999999999,0.5831946464646465,Sciecq,municipality,79308,,Sciecq,,79000,Sciecq,"79, Deux-Sèvres, Nouvelle-Aquitaine",79308,,,,ok
02000,Aulnois sous Laon,3.610652,49.615005,0.9369336363636362,0.7018248484848484,Aulnois-sous-Laon,municipality,02037,,Aulnois-sous-Laon,,02000,Aulnois-sous-Laon,"02, Aisne, Hauts-de-France",02037,,,,ok
02000,Barenton Bugny,3.650831,49.631451,0.9328609090909089,0.6026775757575756,Barenton-Bugny,municipality,02046,,Barenton-Bugny,,02000,Barenton-Bugny,"02, Aisne, Hauts-de-France",02046,,,,ok
02000,Barenton Cel,3.652119,49.643228,0.9255045454545453,0.5855625974025973,Barenton-Cel,municipality,02047,,Barenton-Cel,,02000,Barenton-Cel,"02, Aisne, Hauts-de-France",02047,,,,ok
02000,Bourguignon sous Montbavin,3.54104,49.527125,0.9270218181818182,0.7084432372505544,Bourguignon-sous-Montbavin,municipality,02108,,Bourguignon-sous-Montbavin,,02000,Bourguignon-sous-Montbavin,"02, Aisne, Hauts-de-France",02108,,,,ok
02000,Braye en Laonnois,3.609879,49.441463,0.9278509090909091,0.6158398395721925,Braye-en-Laonnois,municipality,02115,,Braye-en-Laonnois,,02000,Braye-en-Laonnois,"02, Aisne, Hauts-de-France",02115,,,,ok
02000,Chaillevois,3.525377,49.513459,0.9279472727272727,0.5716269023569023,Chaillevois,municipality,02155,,Chaillevois,,02000,Chaillevois,"02, Aisne, Hauts-de-France",02155,,,,ok
02000,Chambry,3.671256,49.601908,0.9346763636363635,0.5539114285714285,Chambry,municipality,02157,,Chambry,,02000,Chambry,"02, Aisne, Hauts-de-France",02157,,,,ok
02000,Chavignon,3.518532,49.478612,0.9347254545454544,0.5378754545454546,Chavignon,municipality,02174,,Chavignon,,02000,Chavignon,"02, Aisne, Hauts-de-France",02174,,,,ok
02000,Chery les Pouilly,3.60567,49.656556,0.9341209090909091,0.6581745454545453,Chéry-lès-Pouilly,municipality,02180,,Chéry-lès-Pouilly,,02000,Chéry-lès-Pouilly,"02, Aisne, Hauts-de-France",02180,,,,ok
02000,Chevregny,3.591836,49.47161,0.9278990909090908,0.5522621212121213,Chevregny,municipality,02183,,Chevregny,,02000,Chevregny,"02, Aisne, Hauts-de-France",02183,,,,ok
02000,Chivy les Etouvelles,3.585395,49.532246,0.9323727272727271,0.815125423197492,Chivy-lès-Étouvelles,municipality,02191,,Chivy-lès-Étouvelles,,02000,Chivy-lès-Étouvelles,"02, Aisne, Hauts-de-France",02191,,,,ok
02000,Clacy et Thierret,3.570382,49.548857,0.930069090909091,0.6692894721407625,Clacy-et-Thierret,municipality,02196,,Clacy-et-Thierret,,02000,Clacy-et-Thierret,"02, Aisne, Hauts-de-France",02196,,,,ok
02000,Etouvelles,3.58141,49.521666,0.9284018181818181,0.5687363636363636,Étouvelles,municipality,02294,,Étouvelles,,02000,Étouvelles,"02, Aisne, Hauts-de-France",02294,,,,ok
02000,Filain,3.556954,49.458214,0.9259336363636362,0.5758028282828282,Filain,municipality,02311,,Filain,,02000,Filain,"02, Aisne, Hauts-de-France",02311,,,,ok
02000,Laniscourt,3.540317,49.549393,0.9284663636363635,0.5907081818181817,Laniscourt,municipality,02407,,Laniscourt,,02000,Laniscourt,"02, Aisne, Hauts-de-France",02407,,,,ok
02000,Laon,3.614719,49.570287,0.9499463636363634,0.60427,Laon,municipality,02408,,Laon,,02000,Laon,"02, Aisne, Hauts-de-France",02408,,,,ok
02000,Merlieux et Fouquerolles,3.499607,49.511937,0.9293727272727272,0.7012661305361305,Merlieux-et-Fouquerolles,municipality,02478,,Merlieux-et-Fouquerolles,,02000,Merlieux-et-Fouquerolles,"02, Aisne, Hauts-de-France",02478,,,,ok
02000,Molinchart,3.53963,49.562762,0.93075,0.5555864335664334,Molinchart,municipality,02489,,Molinchart,,02000,Molinchart,"02, Aisne, Hauts-de-France",02489,,,,ok
02000,Monampteuil,3.569191,49.475511,0.92608,0.6019581818181818,Monampteuil,municipality,02490,,Monampteuil,,02000,Monampteuil,"02, Aisne, Hauts-de-France",02490,,,,ok
02000,Mons en Laonnois,3.560077,49.538783,0.9361390909090908,0.6885063009404389,Mons-en-Laonnois,municipality,02497,,Mons-en-Laonnois,,02000,Mons-en-Laonnois,"02, Aisne, Hauts-de-France",02497,,,,ok
02000,Montbavin,3.510368,49.529939,0.9212981818181818,0.5669464462809917,Montbavin,municipality,02499,,Montbavin,,02000,Montbavin,"02, Aisne, Hauts-de-France",02499,,,,ok
02000,Pargny Filain,3.546525,49.46517,0.9293381818181818,0.576600909090909,Pargny-Filain,municipality,02589,,Pargny-Filain,,02000,Pargny-Filain,"02, Aisne, Hauts-de-France",02589,,,,ok
02000,Royaucourt et Chailvet,3.532965,49.514739,0.92899,0.640850909090909,Royaucourt-et-Chailvet,municipality,02661,,Royaucourt-et-Chailvet,,02000,Royaucourt-et-Chailvet,"02, Aisne, Hauts-de-France",02661,,,,ok
02000,Urcel,3.558783,49.492156,0.9328445454545454,0.4598040692640692,Urcel,municipality,02755,,Urcel,,02000,Urcel,"02, Aisne, Hauts-de-France",02755,,,,ok
02000,Vaucelles et Beffecourt,3.560701,49.528944,0.9289709090909091,0.7503036363636363,Vaucelles-et-Beffecourt,municipality,02765,,Vaucelles-et-Beffecourt,,02000,Vaucelles-et-Beffecourt,"02, Aisne, Hauts-de-France",02765,,,,ok
02000,Verneuil sur Serre,3.673548,49.650442,0.9294427272727271,0.5794355980861243,Verneuil-sur-Serre,municipality,02787,,Verneuil-sur-Serre,,02000,Verneuil-sur-Serre,"02, Aisne, Hauts-de-France",02787,,,,ok
16210,Bardenac,-0.013625,45.304602,0.9286954545454545,0.5855260173160173,Bardenac,municipality,16029,,Bardenac,,16210,Bardenac,"16, Charente, Nouvelle-Aquitaine",16029,,,,ok
16210,Bazac,0.034353,45.221503,0.9268427272727273,0.45796770562770556,Bazac,municipality,16034,,Bazac,,16210,Bazac,"16, Charente, Nouvelle-Aquitaine",16034,,,,ok
16210,Bellon,0.118122,45.314438,0.9265590909090908,0.4612740692640692,Bellon,municipality,16037,,Bellon,,16210,Bellon,"16, Charente, Nouvelle-Aquitaine",16037,,,,ok
16210,Brie sous Chalais,0.007469,45.315502,0.927250909090909,0.6346869696969696,Brie-sous-Chalais,municipality,16063,,Brie-sous-Chalais,,16210,Brie-sous-Chalais,"16, Charente, Nouvelle-Aquitaine",16063,,,,ok
16210,Chalais,0.039942,45.274393,0.9381527272727271,0.5343814049586776,Chalais,municipality,16073,,Chalais,,16210,Chalais,"16, Charente, Nouvelle-Aquitaine",16073,,,,ok
16210,Chalais,0.039942,45.274393,0.9381527272727271,0.5343814049586776,Chalais,municipality,16073,,Chalais,,16210,Chalais,"16, Charente, Nouvelle-Aquitaine",16073,,,,ok
16210,Chalais,0.039942,45.274393,0.9381527272727271,0.5343814049586776,Chalais,municipality,16073,,Chalais,,16210,Chalais,"16, Charente, Nouvelle-Aquitaine",16073,,,,ok
16210,Courlac,0.090555,45.301364,0.9227827272727271,0.42504767676767674,Courlac,municipality,16112,,Courlac,,16210,Courlac,"16, Charente, Nouvelle-Aquitaine",16112,,,,ok
16210,Curac,0.025044,45.295082,0.9258963636363635,0.4776518181818182,Curac,municipality,16117,,Curac,,16210,Curac,"16, Charente, Nouvelle-Aquitaine",16117,,,,ok
16210,Les Essards,0.114375,45.239384,0.9278018181818182,0.6258308300395257,Les Essards,municipality,16130,,Les Essards,,16210,Les Essards,"16, Charente, Nouvelle-Aquitaine",16130,,,,ok
16210,Medillac,0.019297,45.218871,0.9270509090909091,0.5206728458498023,Médillac,municipality,16215,,Médillac,,16210,Médillac,"16, Charente, Nouvelle-Aquitaine",16215,,,,ok
16210,Orival,0.071905,45.277687,0.9269927272727272,0.4462266666666666,Orival,municipality,16252,,Orival,,16210,Orival,"16, Charente, Nouvelle-Aquitaine",16252,,,,ok
16210,Rioux Martin,0.002332,45.246762,0.9287563636363636,0.6409972727272728,Rioux-Martin,municipality,16279,,Rioux-Martin,,16210,Rioux-Martin,"16, Charente, Nouvelle-Aquitaine",16279,,,,ok
16210,Rouffiac,0.102088,45.26241,0.9260445454545453,0.5339376284584979,Rouffiac,municipality,16284,,Rouffiac,,16210,Rouffiac,"16, Charente, Nouvelle-Aquitaine",16284,,,,ok
16210,St Avit,0.038999,45.246976,0.6445436363636363,0.3691651515151515,Saint-Avit,municipality,16302,,Saint-Avit,,16210,Saint-Avit,"16, Charente, Nouvelle-Aquitaine",16302,,,,ok
16210,St Quentin de Chalais,0.071472,45.243817,0.7776430303030303,0.6059687645687646,Saint-Quentin-de-Chalais,municipality,16346,,Saint-Quentin-de-Chalais,,16210,Saint-Quentin-de-Chalais,"16, Charente, Nouvelle-Aquitaine",16346,,,,ok
16210,St Romain,0.126925,45.281195,0.6799456565656565,0.4055763636363636,Saint-Romain,municipality,16347,,Saint-Romain,,16210,Saint-Romain,"16, Charente, Nouvelle-Aquitaine",16347,,,,ok
16210,Yviers,-0.017088,45.269351,0.9326781818181817,0.4842290909090909,Yviers,municipality,16424,,Yviers,,16210,Yviers,"16, Charente, Nouvelle-Aquitaine",16424,,,,ok
31450,Ayguesvives,1.593836,43.432632,0.9401227272727272,0.699504297520661,Ayguesvives,municipality,31004,,Ayguesvives,,31450,Ayguesvives,"31, Haute-Garonne, Occitanie",31004,,,,ok
31450,Baziege,1.6213,43.460932,0.9412245454545454,0.5492832231404957,Baziège,municipality,31048,,Baziège,,31450,Baziège,"31, Haute-Garonne, Occitanie",31048,,,,ok
31450,Belberaud,1.574847,43.504569,0.9374527272727272,0.6678763636363636,Belberaud,municipality,31057,,Belberaud,,31450,Belberaud,"31, Haute-Garonne, Occitanie",31057,,,,ok
31450,Belbeze de Lauragais,1.554098,43.43554,0.9262572727272727,0.7323872727272727,Belbèze-de-Lauragais,municipality,31058,,Belbèze-de-Lauragais,,31450,Belbèze-de-Lauragais,"31, Haute-Garonne, Occitanie",31058,,,,ok
31450,Corronsac,1.492039,43.474087,0.9349463636363635,0.6703627272727272,Corronsac,municipality,31151,,Corronsac,,31450,Corronsac,"31, Haute-Garonne, Occitanie",31151,,,,ok
31450,Deyme,1.532952,43.486099,0.9368899999999999,0.5688602673796791,Deyme,municipality,31161,,Deyme,,31450,Deyme,"31, Haute-Garonne, Occitanie",31161,,,,ok
31450,Donneville,1.547876,43.470704,0.9360190909090907,0.598260909090909,Donneville,municipality,31162,,Donneville,,31450,Donneville,"31, Haute-Garonne, Occitanie",31162,,,,ok
31450,Espanes,1.487797,43.451741,0.9298381818181817,0.5137122943722944,Espanès,municipality,31171,,Espanès,,31450,Espanès,"31, Haute-Garonne, Occitanie",31171,,,,ok
31450,Fourquevaux,1.623792,43.498325,0.9343018181818182,0.6936842975206612,Fourquevaux,municipality,31192,,Fourquevaux,,31450,Fourquevaux,"31, Haute-Garonne, Occitanie",31192,,,,ok
31450,Issus,1.496335,43.427153,0.9334745454545453,0.4743974641148325,Issus,municipality,31240,,Issus,,31450,Issus,"31, Haute-Garonne, Occitanie",31240,,,,ok
31450,Labastide Beauvoir,1.668712,43.477004,0.9364845454545454,0.705031348973607,Labastide-Beauvoir,municipality,31249,,Labastide-Beauvoir,,31450,Labastide-Beauvoir,"31, Haute-Garonne, Occitanie",31249,,,,ok
31450,Montbrun Lauragais,1.518315,43.458249,0.9338227272727271,0.774635974025974,Montbrun-Lauragais,municipality,31366,,Montbrun-Lauragais,,31450,Montbrun-Lauragais,"31, Haute-Garonne, Occitanie",31366,,,,ok
31450,Montesquieu Lauragais,1.620387,43.404211,0.9356827272727272,0.7702218181818181,Montesquieu-Lauragais,municipality,31374,,Montesquieu-Lauragais,,31450,Montesquieu-Lauragais,"31, Haute-Garonne, Occitanie",31374,,,,ok
31450,Montgiscard,1.557816,43.453757,0.93982,0.6501733333333333,Montgiscard,municipality,31381,,Montgiscard,,31450,Montgiscard,"31, Haute-Garonne, Occitanie",31381,,,,ok
31450,Montlaur,1.583617,43.486159,0.9381527272727271,0.514620118577075,Montlaur,municipality,31384,,Montlaur,,31450,Montlaur,"31, Haute-Garonne, Occitanie",31384,,,,ok
31450,Noueilles,1.521873,43.417567,0.9312272727272728,0.6648018181818182,Noueilles,municipality,31401,,Noueilles,,31450,Noueilles,"31, Haute-Garonne, Occitanie",31401,,,,ok
31450,Odars,1.59302,43.52622,0.9351318181818181,0.6449796969696969,Odars,municipality,31402,,Odars,,31450,Odars,"31, Haute-Garonne, Occitanie",31402,,,,ok
31450,Pompertuzat,1.518657,43.490612,0.93919,0.6675037944664031,Pompertuzat,municipality,31429,,Pompertuzat,,31450,Pompertuzat,"31, Haute-Garonne, Occitanie",31429,,,,ok
31450,Pouze,1.533029,43.433523,0.9244490909090908,0.5551111764705883,Pouze,municipality,31437,,Pouze,,31450,Pouze,"31, Haute-Garonne, Occitanie",31437,,,,ok
31450,Varennes,1.692231,43.474678,0.9294427272727271,0.4487306493506493,Varennes,municipality,31568,,Varennes,,31450,Varennes,"31, Haute-Garonne, Occitanie",31568,,,,ok
44522,Mesanger,-1.231796,47.430751,0.9425372727272726,0.6697077511961722,Mésanger,municipality,44096,,Mésanger,,44522,Mésanger,"44, Loire-Atlantique, Pays de la Loire",44096,,,,ok
44522,Pouille les Coteaux,-1.180068,47.461491,0.9358036363636364,0.7116818181818182,Pouillé-les-Côteaux,municipality,44134,,Pouillé-les-Côteaux,,44522,Pouillé-les-Côteaux,"44, Loire-Atlantique, Pays de la Loire",44134,,,,ok
44522,La Roche Blanche,-1.140589,47.438328,0.9365027272727273,0.6566321407624632,La Roche-Blanche,municipality,44222,,La Roche-Blanche,,44522,La Roche-Blanche,"44, Loire-Atlantique, Pays de la Loire",44222,,,,ok
27230,Barville,0.474654,49.157728,0.9243445454545455,0.4984519367588932,Barville,municipality,27042,,Barville,,27230,Barville,"27, Eure, Normandie",27042,,,,ok
27230,Bazoques,0.547315,49.168766,0.9267190909090908,0.5132024242424241,Bazoques,municipality,27046,,Bazoques,,27230,Bazoques,"27, Eure, Normandie",27046,,,,ok
27230,Bournainville Faverolles,0.501462,49.121171,0.9322445454545454,0.7149134152334152,Bournainville-Faverolles,municipality,27106,,Bournainville-Faverolles,,27230,Bournainville-Faverolles,"27, Eure, Normandie",27106,,,,ok
27230,Bournainville Faverolles,0.501462,49.121171,0.9322445454545454,0.7149134152334152,Bournainville-Faverolles,municipality,27106,,Bournainville-Faverolles,,27230,Bournainville-Faverolles,"27, Eure, Normandie",27106,,,,ok
27230,Bournainville Faverolles,0.501462,49.121171,0.9322445454545454,0.7149134152334152,Bournainville-Faverolles,municipality,27106,,Bournainville-Faverolles,,27230,Bournainville-Faverolles,"27, Eure, Normandie",27106,,,,ok
27230,La Chapelle Hareng,0.427421,49.114729,0.9261163636363636,0.6946631671554252,La Chapelle-Hareng,municipality,27149,,La Chapelle-Hareng,,27230,La Chapelle-Hareng,"27, Eure, Normandie",27149,,,,ok
27230,Drucourt,0.462752,49.119292,0.933050909090909,0.6522713875598085,Drucourt,municipality,27207,,Drucourt,,27230,Drucourt,"27, Eure, Normandie",27207,,,,ok
27230,Duranville,0.516807,49.146147,0.9269327272727271,0.5664472727272727,Duranville,municipality,27208,,Duranville,,27230,Duranville,"27, Eure, Normandie",27208,,,,ok
27230,Le Favril,0.527105,49.182333,0.9277018181818182,0.5814224110671937,Le Favril,municipality,27237,,Le Favril,,27230,Le Favril,"27, Eure, Normandie",27237,,,,ok
27230,Folleville,0.518319,49.167203,0.9281118181818181,0.576470909090909,Folleville,municipality,27248,,Folleville,,27230,Folleville,"27, Eure, Normandie",27248,,,,ok
27230,Fontaine la Louvet,0.450094,49.158577,0.9304427272727273,0.6134553535353534,Fontaine-la-Louvet,municipality,27252,,Fontaine-la-Louvet,,27230,Fontaine-la-Louvet,"27, Eure, Normandie",27252,,,,ok
27230,Heudreville en Lieuvin,0.495521,49.188682,0.9256654545454545,0.7033863636363635,Heudreville-en-Lieuvin,municipality,27334,,Heudreville-en-Lieuvin,,27230,Heudreville-en-Lieuvin,"27, Eure, Normandie",27334,,,,ok
27230,Piencourt,0.409766,49.175201,0.9274145454545455,0.5517775757575758,Piencourt,municipality,27455,,Piencourt,,27230,Piencourt,"27, Eure, Normandie",27455,,,,ok
27230,Les Places,0.422418,49.14923,0.9238418181818182,0.5958109090909091,Les Places,municipality,27459,,Les Places,,27230,Les Places,"27, Eure, Normandie",27459,,,,ok
27230,Le Planquay,0.430976,49.095035,0.9273336363636363,0.5408741558441558,Le Planquay,municipality,27462,,Le Planquay,,27230,Le Planquay,"27, Eure, Normandie",27462,,,,ok
27230,St Aubin de Scellon,0.478636,49.176613,0.7682005194805195,0.5698878088578088,Saint-Aubin-de-Scellon,municipality,27512,,Saint-Aubin-de-Scellon,,27230,Saint-Aubin-de-Scellon,"27, Eure, Normandie",27512,,,,ok
27230,St Germain la Campagne,0.407809,49.051143,0.7882306158357771,0.6540777511961723,Saint-Germain-la-Campagne,municipality,27547,,Saint-Germain-la-Campagne,,27230,Saint-Germain-la-Campagne,"27, Eure, Normandie",27547,,,,ok
27230,St Mards de Fresne,0.444618,49.077506,0.7622952861952861,0.5979767532467531,Saint-Mards-de-Fresne,municipality,27564,,Saint-Mards-de-Fresne,,27230,Saint-Mards-de-Fresne,"27, Eure, Normandie",27564,,,,ok
27230,St Vincent du Boulay,0.487431,49.102414,0.7743101880877743,0.5445905194805194,Saint-Vincent-du-Boulay,municipality,27613,,Saint-Vincent-du-Boulay,,27230,Saint-Vincent-du-Boulay,"27, Eure, Normandie",27613,,,,ok
27230,Le Theil Nolent,0.534439,49.154718,0.9294081818181817,0.5947999999999999,Le Theil-Nolent,municipality,27627,,Le Theil-Nolent,,27230,Le Theil-Nolent,"27, Eure, Normandie",27627,,,,ok
27230,Thiberville,0.439366,49.134035,0.9381072727272728,0.6055263636363636,Thiberville,municipality,27629,,Thiberville,,27230,Thiberville,"27, Eure, Normandie",27629,,,,ok
62530,Gouy Servins,2.648644,50.402529,0.9308272727272727,0.6843121212121211,Gouy-Servins,municipality,62380,,Gouy-Servins,,62530,Gouy-Servins,"62, Pas-de-Calais, Hauts-de-France",62380,,,,ok
62530,Hersin Coupigny,2.64289,50.446791,0.9437527272727272,0.651621515151515,Hersin-Coupigny,municipality,62443,,Hersin-Coupigny,,62530,Hersin-Coupigny,"62, Pas-de-Calais, Hauts-de-France",62443,,,,ok
62530,Servins,2.638739,50.401788,0.9360799999999999,0.6634475935828876,Servins,municipality,62793,,Servins,,62530,Servins,"62, Pas-de-Calais, Hauts-de-France",62793,,,,ok
14000,Caen,-0.37193,49.184316,0.9567872727272726,0.5011238277511961,Caen,municipality,14118,,Caen,,14000,Caen,"14, Calvados, Normandie",14118,,,,ok
30330,La Bastide d Engras,4.474351,44.09933,0.9283145454545455,0.6446987165775401,La Bastide-d'Engras,municipality,30031,,La Bastide-d'Engras,,30330,La Bastide-d'Engras,"30, Gard, Occitanie",30031,,,,ok
30330,Cavillargues,4.521537,44.118096,0.9347518181818181,0.5820632659932659,Cavillargues,municipality,30076,,Cavillargues,,30330,Cavillargues,"30, Gard, Occitanie",30076,,,,ok
30330,Connaux,4.592033,44.083059,0.9379109090909089,0.5351541322314048,Connaux,municipality,30092,,Connaux,,30330,Connaux,"30, Gard, Occitanie",30092,,,,ok
30330,Gaujac,4.576683,44.079895,0.9357954545454544,0.48856545454545447,Gaujac,municipality,30127,,Gaujac,,30330,Gaujac,"30, Gard, Occitanie",30127,,,,ok
30330,Le Pin,4.541475,44.09117,0.9320645454545454,0.5086159307359307,Le Pin,municipality,30196,,Le Pin,,30330,Le Pin,"30, Gard, Occitanie",30196,,,,ok
30330,Pougnadoresse,4.510729,44.094942,0.9293554545454545,0.5800171428571428,Pougnadoresse,municipality,30205,,Pougnadoresse,,30330,Pougnadoresse,"30, Gard, Occitanie",30205,,,,ok
30330,St Andre d Olerargues,4.498819,44.16571,0.780290303030303,0.5585712262156448,Saint-André-d'Olérargues,municipality,30232,,Saint-André-d'Olérargues,,30330,Saint-André-d'Olérargues,"30, Gard, Occitanie",30232,,,,ok
30330,St Laurent la Vernede,4.458855,44.10647,0.7823075757575758,0.61063331002331,Saint-Laurent-la-Vernède,municipality,30279,,Saint-Laurent-la-Vernède,,30330,Saint-Laurent-la-Vernède,"30, Gard, Occitanie",30279,,,,ok
30330,St Marcel de Careiret,4.490252,44.144362,0.7833893939393939,0.6065981818181818,Saint-Marcel-de-Careiret,municipality,30282,,Saint-Marcel-de-Careiret,,30330,Saint-Marcel-de-Careiret,"30, Gard, Occitanie",30282,,,,ok
30330,St Pons la Calm,4.557245,44.099797,0.7428315151515151,0.5400013903743316,Saint-Pons-la-Calm,municipality,30292,,Saint-Pons-la-Calm,,30330,Saint-Pons-la-Calm,"30, Gard, Occitanie",30292,,,,ok
30330,Tresques,4.596703,44.122339,0.9381827272727271,0.552377628458498,Tresques,municipality,30331,,Tresques,,30330,Tresques,"30, Gard, Occitanie",30331,,,,ok
30330,St Paul les Fonts,4.613269,44.081875,0.7608539160839161,0.5751927272727272,Saint-Paul-les-Fonts,municipality,30355,,Saint-Paul-les-Fonts,,30330,Saint-Paul-les-Fonts,"30, Gard, Occitanie",30355,,,,ok
03210,Agonges,3.168326,46.607024,0.9301427272727273,0.5157259307359308,Agonges,municipality,03002,,Agonges,,03210,Agonges,"03, Allier, Auvergne-Rhône-Alpes",03002,,,,ok
03210,Autry Issards,3.12,46.544,0.9302599999999999,0.6151232996632996,Autry-Issards,municipality,03012,,Autry-Issards,,03210,Autry-Issards,"03, Allier, Auvergne-Rhône-Alpes",03012,,,,ok
03210,Besson,3.263476,46.472271,0.9342845454545454,0.5839001010101009,Besson,municipality,03026,,Besson,,03210,Besson,"03, Allier, Auvergne-Rhône-Alpes",03026,,,,ok
03210,Bresnay,3.248352,46.436471,0.9311927272727273,0.5994154066985645,Bresnay,municipality,03039,,Bresnay,,03210,Bresnay,"03, Allier, Auvergne-Rhône-Alpes",03039,,,,ok
03210,Chatillon,3.134251,46.458845,0.9302163636363636,0.5264869696969696,Châtillon,municipality,03069,,Châtillon,,03210,Châtillon,"03, Allier, Auvergne-Rhône-Alpes",03069,,,,ok
03210,Chemilly,3.309849,46.486316,0.9332345454545454,0.5197187878787879,Chemilly,municipality,03073,,Chemilly,,03210,Chemilly,"03, Allier, Auvergne-Rhône-Alpes",03073,,,,ok
03210,Gipcy,3.056183,46.504031,0.9290090909090909,0.5015379904306219,Gipcy,municipality,03122,,Gipcy,,03210,Gipcy,"03, Allier, Auvergne-Rhône-Alpes",03122,,,,ok
03210,Marigny,3.212124,46.580789,0.928270909090909,0.5066255731225295,Marigny,municipality,03162,,Marigny,,03210,Marigny,"03, Allier, Auvergne-Rhône-Alpes",03162,,,,ok
03210,Meillers,3.093328,46.507663,0.9261872727272727,0.5088501185770751,Meillers,municipality,03170,,Meillers,,03210,Meillers,"03, Allier, Auvergne-Rhône-Alpes",03170,,,,ok
03210,Noyant d Allier,3.120478,46.481231,0.9331663636363636,0.676577012987013,Noyant-d'Allier,municipality,03202,,Noyant-d'Allier,,03210,Noyant-d'Allier,"03, Allier, Auvergne-Rhône-Alpes",03202,,,,ok
03210,St Menoux,3.145665,46.578435,0.6834983838383838,0.5470676284584979,Saint-Menoux,municipality,03247,,Saint-Menoux,,03210,Saint-Menoux,"03, Allier, Auvergne-Rhône-Alpes",03247,,,,ok
03210,Souvigny,3.192662,46.52673,0.9379845454545452,0.549029446640316,Souvigny,municipality,03275,,Souvigny,,03210,Souvigny,"03, Allier, Auvergne-Rhône-Alpes",03275,,,,ok
67150,Bolsenheim,7.610641,48.420089,0.9329963636363636,0.5955578656126481,Bolsenheim,municipality,67054,,Bolsenheim,,67150,Bolsenheim,"67, Bas-Rhin, Grand Est",67054,,,,ok
67150,Daubensand,7.719365,48.348884,0.9316699999999999,0.6003960474308301,Daubensand,municipality,67086,,Daubensand,,67150,Daubensand,"67, Bas-Rhin, Grand Est",67086,,,,ok
67150,Erstein,7.667782,48.41893,0.9463499999999999,0.5762430622009569,Erstein,municipality,67130,,Erstein,,67150,Erstein,"67, Bas-Rhin, Grand Est",67130,,,,ok
67150,Erstein,7.667782,48.41893,0.9463499999999999,0.5762430622009569,Erstein,municipality,67130,,Erstein,,67150,Erstein,"67, Bas-Rhin, Grand Est",67130,,,,ok
67150,Gerstheim,7.710463,48.383209,0.9411463636363635,0.5819855371900826,Gerstheim,municipality,67154,,Gerstheim,,67150,Gerstheim,"67, Bas-Rhin, Grand Est",67154,,,,ok
67150,Hindisheim,7.637165,48.467938,0.9374645454545455,0.5428759595959596,Hindisheim,municipality,67197,,Hindisheim,,67150,Hindisheim,"67, Bas-Rhin, Grand Est",67197,,,,ok
67150,Hipsheim,7.675151,48.466011,0.9355372727272726,0.6861620202020202,Hipsheim,municipality,67200,,Hipsheim,,67150,Hipsheim,"67, Bas-Rhin, Grand Est",67200,,,,ok
67150,Limersheim,7.643671,48.45616,0.9338027272727272,0.5994633201581028,Limersheim,municipality,67266,,Limersheim,,67150,Limersheim,"67, Bas-Rhin, Grand Est",67266,,,,ok
67150,Matzenheim,7.624984,48.391206,0.9373181818181817,0.6892361038961038,Matzenheim,municipality,67285,,Matzenheim,,67150,Matzenheim,"67, Bas-Rhin, Grand Est",67285,,,,ok
67150,Matzenheim,7.624984,48.391206,0.9373181818181817,0.6892361038961038,Matzenheim,municipality,67285,,Matzenheim,,67150,Matzenheim,"67, Bas-Rhin, Grand Est",67285,,,,ok
67150,Nordhouse,7.675657,48.449515,0.938010909090909,0.5948824110671936,Nordhouse,municipality,67336,,Nordhouse,,67150,Nordhouse,"67, Bas-Rhin, Grand Est",67336,,,,ok
67150,Osthouse,7.641505,48.40289,0.9352,0.5903881818181818,Osthouse,municipality,67364,,Osthouse,,67150,Osthouse,"67, Bas-Rhin, Grand Est",67364,,,,ok
67150,Schaeffersheim,7.622719,48.429422,0.934521818181818,0.6564578787878786,Schaeffersheim,municipality,67438,,Schaeffersheim,,67150,Schaeffersheim,"67, Bas-Rhin, Grand Est",67438,,,,ok
67150,Uttenheim,7.598659,48.41046,0.9329809090909089,0.5710730303030302,Uttenheim,municipality,67501,,Uttenheim,,67150,Uttenheim,"67, Bas-Rhin, Grand Est",67501,,,,ok
03400,Gennetines,3.403349,46.632201,0.9334099999999999,0.5663890909090908,Gennetines,municipality,03121,,Gennetines,,03400,Gennetines,"03, Allier, Auvergne-Rhône-Alpes",03121,,,,ok
03400,St Ennemond,3.397891,46.693099,0.7060136363636363,0.45985696969696965,Saint-Ennemond,municipality,03229,,Saint-Ennemond,,03400,Saint-Ennemond,"03, Allier, Auvergne-Rhône-Alpes",03229,,,,ok
03400,Toulon sur Allier,3.356768,46.519568,0.9361709090909089,0.7709716498316498,Toulon-sur-Allier,municipality,03286,,Toulon-sur-Allier,,03400,Toulon-sur-Allier,"03, Allier, Auvergne-Rhône-Alpes",03286,,,,ok
03400,Yzeure,3.360501,46.567639,0.9470136363636362,0.5287441125541126,Yzeure,municipality,03321,,Yzeure,,03400,Yzeure,"03, Allier, Auvergne-Rhône-Alpes",03321,,,,ok
14730,Giberville,-0.28681,49.181412,0.9426709090909089,0.5593295959595959,Giberville,municipality,14301,,Giberville,,14730,Giberville,"14, Calvados, Normandie",14301,,,,ok
35850,Geveze,-1.799504,48.210976,0.9435590909090907,0.5994755555555555,Gévezé,municipality,35120,,Gévezé,,35850,Gévezé,"35, Ille-et-Vilaine, Bretagne",35120,,,,ok
35850,Irodouer,-1.946845,48.246926,0.9392563636363636,0.6310618181818182,Irodouër,municipality,35135,,Irodouër,,35850,Irodouër,"35, Ille-et-Vilaine, Bretagne",35135,,,,ok
35850,Langan,-1.846544,48.232724,0.9358372727272726,0.5927682828282829,Langan,municipality,35144,,Langan,,35850,Langan,"35, Ille-et-Vilaine, Bretagne",35144,,,,ok
35850,Parthenay de Bretagne,-1.826617,48.189023,0.9381581818181817,0.7484707162534434,Parthenay-de-Bretagne,municipality,35216,,Parthenay-de-Bretagne,,35850,Parthenay-de-Bretagne,"35, Ille-et-Vilaine, Bretagne",35216,,,,ok
35850,Romille,-1.872876,48.223151,0.9419336363636363,0.6158508612440191,Romillé,municipality,35245,,Romillé,,35850,Romillé,"35, Ille-et-Vilaine, Bretagne",35245,,,,ok
91800,Boussy St Antoine,2.534369,48.689974,0.770113006993007,0.592960909090909,Boussy-Saint-Antoine,municipality,91097,,Boussy-Saint-Antoine,,91800,Boussy-Saint-Antoine,"91, Essonne, Île-de-France",91097,,,,ok
91800,Brunoy,2.504827,48.695959,0.9502045454545455,0.5357604761904762,Brunoy,municipality,91114,,Brunoy,,91800,Brunoy,"91, Essonne, Île-de-France",91114,,,,ok
91380,Chilly Mazarin,2.311186,48.704045,0.9491,0.6509258307210031,Chilly-Mazarin,municipality,91161,,Chilly-Mazarin,,91380,Chilly-Mazarin,"91, Essonne, Île-de-France",91161,,,,ok
67270,Alteckendorf,7.593658,48.79177,0.9348154545454544,0.6109932996632996,Alteckendorf,municipality,67005,,Alteckendorf,,67270,Alteckendorf,"67, Bas-Rhin, Grand Est",67005,,,,ok
67270,Bossendorf,7.559914,48.780785,0.9311690909090908,0.5849487747035573,Bossendorf,municipality,67058,,Bossendorf,,67270,Bossendorf,"67, Bas-Rhin, Grand Est",67058,,,,ok
67270,Duntzenheim,7.536635,48.71242,0.933600909090909,0.6022772727272727,Duntzenheim,municipality,67107,,Duntzenheim,,67270,Duntzenheim,"67, Bas-Rhin, Grand Est",67107,,,,ok
67270,Durningen,7.569352,48.683195,0.9337363636363636,0.5702964462809917,Durningen,municipality,67109,,Durningen,,67270,Durningen,"67, Bas-Rhin, Grand Est",67109,,,,ok
67270,Geiswiller Zoebersdorf,7.508548,48.788697,0.9312163636363635,0.6430772727272727,Geiswiller-Zœbersdorf,municipality,67153,,Geiswiller-Zœbersdorf,,67270,Geiswiller-Zœbersdorf,"67, Bas-Rhin, Grand Est",67153,,,,ok
67270,Geiswiller Zoebersdorf,7.508548,48.788697,0.9312163636363635,0.6430772727272727,Geiswiller-Zœbersdorf,municipality,67153,,Geiswiller-Zœbersdorf,,67270,Geiswiller-Zœbersdorf,"67, Bas-Rhin, Grand Est",67153,,,,ok
67270,Gougenheim,7.567194,48.701181,0.9327454545454544,0.5772536363636362,Gougenheim,municipality,67163,,Gougenheim,,67270,Gougenheim,"67, Bas-Rhin, Grand Est",67163,,,,ok
67270,Hochfelden,7.572109,48.746525,0.9418481818181818,0.5964878656126482,Hochfelden,municipality,67202,,Hochfelden,,67270,Hochfelden,"67, Bas-Rhin, Grand Est",67202,,,,ok
67270,Hochfelden,7.572109,48.746525,0.9418481818181818,0.5964878656126482,Hochfelden,municipality,67202,,Hochfelden,,67270,Hochfelden,"67, Bas-Rhin, Grand Est",67202,,,,ok
67270,Hohfrankenheim,7.575577,48.729697,0.9297263636363636,0.5698599999999999,Hohfrankenheim,municipality,67209,,Hohfrankenheim,,67270,Hohfrankenheim,"67, Bas-Rhin, Grand Est",67209,,,,ok
67270,Huttendorf,7.642197,48.800701,0.9323181818181817,0.5175557142857142,Huttendorf,municipality,67215,,Huttendorf,,67270,Huttendorf,"67, Bas-Rhin, Grand Est",67215,,,,ok
67270,Ingenheim,7.520017,48.734747,0.9308772727272727,0.6024269264069264,Ingenheim,municipality,67220,,Ingenheim,,67270,Ingenheim,"67, Bas-Rhin, Grand Est",67220,,,,ok
67270,Kienheim,7.579811,48.690925,0.9327372727272727,0.5512796103896103,Kienheim,municipality,67236,,Kienheim,,67270,Kienheim,"67, Bas-Rhin, Grand Est",67236,,,,ok
67270,Lixhausen,7.550607,48.793964,0.9310381818181819,0.5784569565217391,Lixhausen,municipality,67270,,Lixhausen,,67270,Lixhausen,"67, Bas-Rhin, Grand Est",67270,,,,ok
67270,Melsheim,7.523107,48.755309,0.932940909090909,0.5537130830039525,Melsheim,municipality,67287,,Melsheim,,67270,Melsheim,"67, Bas-Rhin, Grand Est",67287,,,,ok
67270,Minversheim,7.620742,48.78568,0.9337899999999999,0.6138327272727273,Minversheim,municipality,67293,,Minversheim,,67270,Minversheim,"67, Bas-Rhin, Grand Est",67293,,,,ok
67270,Mutzenhouse,7.587973,48.740568,0.9319963636363635,0.5566064335664335,Mutzenhouse,municipality,67312,,Mutzenhouse,,67270,Mutzenhouse,"67, Bas-Rhin, Grand Est",67312,,,,ok
67270,Rohr,7.547256,48.696021,0.9308145454545453,0.5061570588235293,Rohr,municipality,67406,,Rohr,,67270,Rohr,"67, Bas-Rhin, Grand Est",67406,,,,ok
67270,Saessolsheim,7.514132,48.708575,0.9331890909090909,0.608147845117845,Saessolsheim,municipality,67423,,Saessolsheim,,67270,Saessolsheim,"67, Bas-Rhin, Grand Est",67423,,,,ok
67270,Scherlenheim,7.535062,48.764002,0.925820909090909,0.6298818181818181,Scherlenheim,municipality,67444,,Scherlenheim,,67270,Scherlenheim,"67, Bas-Rhin, Grand Est",67444,,,,ok
67270,Schwindratzheim,7.600219,48.760415,0.9380709090909091,0.6126218181818182,Schwindratzheim,municipality,67460,,Schwindratzheim,,67270,Schwindratzheim,"67, Bas-Rhin, Grand Est",67460,,,,ok
67270,Wickersheim Wilshausen,7.534802,48.779926,0.9312272727272728,0.6489109090909091,Wickersheim-Wilshausen,municipality,67530,,Wickersheim-Wilshausen,,67270,Wickersheim-Wilshausen,"67, Bas-Rhin, Grand Est",67530,,,,ok
67270,Wickersheim Wilshausen,7.534802,48.779926,0.9312272727272728,0.6489109090909091,Wickersheim-Wilshausen,municipality,67530,,Wickersheim-Wilshausen,,67270,Wickersheim-Wilshausen,"67, Bas-Rhin, Grand Est",67530,,,,ok
67270,Wilwisheim,7.507874,48.748561,0.9341881818181816,0.6014236363636363,Wilwisheim,municipality,67534,,Wilwisheim,,67270,Wilwisheim,"67, Bas-Rhin, Grand Est",67534,,,,ok
67270,Wingersheim les Quatre Bans,7.627615,48.719298,0.8324108556149732,0.6973391919191918,Wingersheim les Quatre Bans,municipality,67539,,Wingersheim les Quatre Bans,,67170,Wingersheim les Quatre Bans,"67, Bas-Rhin, Grand Est",67539,,,,ok
88240,La Voge les Bains,6.25729,48.011686,0.9375609090909091,0.6887776539589442,La Vôge-les-Bains,municipality,88029,,La Vôge-les-Bains,,88240,La Vôge-les-Bains,"88, Vosges, Grand Est",88029,,,,ok
88240,La Voge les Bains,6.25729,48.011686,0.9375609090909091,0.6887776539589442,La Vôge-les-Bains,municipality,88029,,La Vôge-les-Bains,,88240,La Vôge-les-Bains,"88, Vosges, Grand Est",88029,,,,ok
88240,La Voge les Bains,6.25729,48.011686,0.9375609090909091,0.6887776539589442,La Vôge-les-Bains,municipality,88029,,La Vôge-les-Bains,,88240,La Vôge-les-Bains,"88, Vosges, Grand Est",88029,,,,ok
88240,La Voge les Bains,6.25729,48.011686,0.9375609090909091,0.6887776539589442,La Vôge-les-Bains,municipality,88029,,La Vôge-les-Bains,,88240,La Vôge-les-Bains,"88, Vosges, Grand Est",88029,,,,ok
88240,La Voge les Bains,6.25729,48.011686,0.9375609090909091,0.6887776539589442,La Vôge-les-Bains,municipality,88029,,La Vôge-les-Bains,,88240,La Vôge-les-Bains,"88, Vosges, Grand Est",88029,,,,ok
88240,La Chapelle aux Bois,6.323861,48.027493,0.9337227272727273,0.7500054545454545,La Chapelle-aux-Bois,municipality,88088,,La Chapelle-aux-Bois,,88240,La Chapelle-aux-Bois,"88, Vosges, Grand Est",88088,,,,ok
88240,La Chapelle aux Bois,6.323861,48.027493,0.9337227272727273,0.7500054545454545,La Chapelle-aux-Bois,municipality,88088,,La Chapelle-aux-Bois,,88240,La Chapelle-aux-Bois,"88, Vosges, Grand Est",88088,,,,ok
88240,Le Clerjus,6.345196,47.978388,0.9321127272727271,0.6190571936758893,Le Clerjus,municipality,88108,,Le Clerjus,,88240,Le Clerjus,"88, Vosges, Grand Est",88108,,,,ok
88240,Fontenoy le Chateau,6.201616,47.976692,0.9323545454545454,0.6998806611570247,Fontenoy-le-Château,municipality,88176,,Fontenoy-le-Château,,88240,Fontenoy-le-Château,"88, Vosges, Grand Est",88176,,,,ok
88240,Fontenoy le Chateau,6.201616,47.976692,0.9323545454545454,0.6998806611570247,Fontenoy-le-Château,municipality,88176,,Fontenoy-le-Château,,88240,Fontenoy-le-Château,"88, Vosges, Grand Est",88176,,,,ok
88240,Grandrupt de Bains,6.18411,48.06489,0.9237827272727273,0.6401314438502673,Grandrupt-de-Bains,municipality,88214,,Grandrupt-de-Bains,,88240,Grandrupt-de-Bains,"88, Vosges, Grand Est",88214,,,,ok
88240,Gruey les Surance,6.173645,48.039709,0.9286136363636363,0.7369593506493506,Gruey-lès-Surance,municipality,88221,,Gruey-lès-Surance,,88240,Gruey-lès-Surance,"88, Vosges, Grand Est",88221,,,,ok
88240,La Haye,6.2244,48.064969,0.9264272727272725,0.516355041322314,La Haye,municipality,88236,,La Haye,,88240,La Haye,"88, Vosges, Grand Est",88236,,,,ok
88240,Montmotier,6.17424,47.97402,0.920631818181818,0.5391673426573426,Montmotier,municipality,88311,,Montmotier,,88240,Montmotier,"88, Vosges, Grand Est",88311,,,,ok
88240,Tremonzey,6.242624,47.969612,0.9291218181818182,0.5126913986013986,Trémonzey,municipality,88479,,Trémonzey,,88240,Trémonzey,"88, Vosges, Grand Est",88479,,,,ok
88240,Les Voivres,6.29678,48.035751,0.9299163636363635,0.5772359932659932,Les Voivres,municipality,88520,,Les Voivres,,88240,Les Voivres,"88, Vosges, Grand Est",88520,,,,ok
92260,Fontenay aux Roses,2.287978,48.789528,0.9500863636363637,0.7338595307917888,Fontenay-aux-Roses,municipality,92032,,Fontenay-aux-Roses,,92260,Fontenay-aux-Roses,"92, Hauts-de-Seine, Île-de-France",92032,,,,ok
67450,Lampertheim,7.70283,48.650282,0.9411399999999999,0.6540024242424242,Lampertheim,municipality,67256,,Lampertheim,,67450,Lampertheim,"67, Bas-Rhin, Grand Est",67256,,,,ok
67450,Mundolsheim,7.716596,48.638775,0.942880909090909,0.6269036363636363,Mundolsheim,municipality,67309,,Mundolsheim,,67450,Mundolsheim,"67, Bas-Rhin, Grand Est",67309,,,,ok
25000,Besancon,6.000637,47.243778,0.9572272727272727,0.5795667193675889,Besançon,municipality,25056,,Besançon,,25000,Besançon,"25, Doubs, Bourgogne-Franche-Comté",25056,,,,ok
25500,Le Belieu,6.637113,47.123009,0.9324445454545455,0.5178577622377623,Le Bélieu,municipality,25050,,Le Bélieu,,25500,Le Bélieu,"25, Doubs, Bourgogne-Franche-Comté",25050,,,,ok
25500,La Chenalotte,6.688145,47.10802,0.9325063636363636,0.5635837829912024,La Chenalotte,municipality,25148,,La Chenalotte,,25500,La Chenalotte,"25, Doubs, Bourgogne-Franche-Comté",25148,,,,ok
25500,Les Combes,6.540333,47.048381,0.9343018181818182,0.6212471936758892,Les Combes,municipality,25160,,Les Combes,,25500,Les Combes,"25, Doubs, Bourgogne-Franche-Comté",25160,,,,ok
25500,Les Fins,6.621865,47.069728,0.9406563636363635,0.5719064462809917,Les Fins,municipality,25240,,Les Fins,,25500,Les Fins,"25, Doubs, Bourgogne-Franche-Comté",25240,,,,ok
25500,Montlebon,6.620141,47.028009,0.9391045454545454,0.6695281818181817,Montlebon,municipality,25403,,Montlebon,,25500,Montlebon,"25, Doubs, Bourgogne-Franche-Comté",25403,,,,ok
25500,Morteau,6.599087,47.05262,0.9442563636363637,0.5473214049586775,Morteau,municipality,25411,,Morteau,,25500,Morteau,"25, Doubs, Bourgogne-Franche-Comté",25411,,,,ok
25500,Noel Cerneux,6.660727,47.10165,0.9319563636363636,0.582128961038961,Noël-Cerneux,municipality,25425,,Noël-Cerneux,,25500,Noël-Cerneux,"25, Doubs, Bourgogne-Franche-Comté",25425,,,,ok
15700,Ally,2.319027,45.168141,0.9331818181818181,0.6216446753246753,Ally,municipality,15003,,Ally,,15700,Ally,"15, Cantal, Auvergne-Rhône-Alpes",15003,,,,ok
15700,Ally,2.319027,45.168141,0.9331818181818181,0.6216446753246753,Ally,municipality,15003,,Ally,,15700,Ally,"15, Cantal, Auvergne-Rhône-Alpes",15003,,,,ok
15700,Barriac les Bosquets,2.272344,45.149888,0.9265263636363636,0.7781621212121212,Barriac-les-Bosquets,municipality,15018,,Barriac-les-Bosquets,,15700,Barriac-les-Bosquets,"15, Cantal, Auvergne-Rhône-Alpes",15018,,,,ok
15700,Brageac,2.269986,45.201532,0.9239581818181817,0.6272296969696969,Brageac,municipality,15024,,Brageac,,15700,Brageac,"15, Cantal, Auvergne-Rhône-Alpes",15024,,,,ok
15700,Chaussenac,2.28029,45.174358,0.9286954545454545,0.6739488311688312,Chaussenac,municipality,15046,,Chaussenac,,15700,Chaussenac,"15, Cantal, Auvergne-Rhône-Alpes",15046,,,,ok
15700,Escorailles,2.33006,45.171727,0.9243445454545455,0.6020654545454545,Escorailles,municipality,15064,,Escorailles,,15700,Escorailles,"15, Cantal, Auvergne-Rhône-Alpes",15064,,,,ok
15700,Pleaux,2.246668,45.144959,0.9372227272727272,0.6635981818181818,Pleaux,municipality,15153,,Pleaux,,15700,Pleaux,"15, Cantal, Auvergne-Rhône-Alpes",15153,,,,ok
15700,Pleaux,2.246668,45.144959,0.9372227272727272,0.6635981818181818,Pleaux,municipality,15153,,Pleaux,,15700,Pleaux,"15, Cantal, Auvergne-Rhône-Alpes",15153,,,,ok
15700,Pleaux,2.246668,45.144959,0.9372227272727272,0.6635981818181818,Pleaux,municipality,15153,,Pleaux,,15700,Pleaux,"15, Cantal, Auvergne-Rhône-Alpes",15153,,,,ok
15700,Pleaux,2.246668,45.144959,0.9372227272727272,0.6635981818181818,Pleaux,municipality,15153,,Pleaux,,15700,Pleaux,"15, Cantal, Auvergne-Rhône-Alpes",15153,,,,ok
15270,Beaulieu,2.521781,45.465291,0.924600909090909,0.5173860606060605,Beaulieu,municipality,15020,,Beaulieu,,15270,Beaulieu,"15, Cantal, Auvergne-Rhône-Alpes",15020,,,,ok
15270,Champs sur Tarentaine Marchal,2.612536,45.393256,0.9356081818181817,0.8222089743589742,Champs-sur-Tarentaine-Marchal,municipality,15038,,Champs-sur-Tarentaine-Marchal,,15270,Champs-sur-Tarentaine-Marchal,"15, Cantal, Auvergne-Rhône-Alpes",15038,,,,ok
15270,Champs sur Tarentaine Marchal,2.612536,45.393256,0.9356081818181817,0.8222089743589742,Champs-sur-Tarentaine-Marchal,municipality,15038,,Champs-sur-Tarentaine-Marchal,,15270,Champs-sur-Tarentaine-Marchal,"15, Cantal, Auvergne-Rhône-Alpes",15038,,,,ok
15270,Lanobre,2.537433,45.432958,0.93693,0.5310232231404958,Lanobre,municipality,15092,,Lanobre,,15270,Lanobre,"15, Cantal, Auvergne-Rhône-Alpes",15092,,,,ok
15270,Lanobre,2.537433,45.432958,0.93693,0.5310232231404958,Lanobre,municipality,15092,,Lanobre,,15270,Lanobre,"15, Cantal, Auvergne-Rhône-Alpes",15092,,,,ok
15270,Tremouille,2.671538,45.389219,0.927520909090909,0.646409256198347,Trémouille,municipality,15240,,Trémouille,,15270,Trémouille,"15, Cantal, Auvergne-Rhône-Alpes",15240,,,,ok
39320,Andelot Morval,5.418307,46.42634,0.9247481818181817,0.5964084848484847,Andelot-Morval,municipality,39010,,Andelot-Morval,,39320,Andelot-Morval,"39, Jura, Bourgogne-Franche-Comté",39010,,,,ok
39320,Andelot Morval,5.418307,46.42634,0.9247481818181817,0.5964084848484847,Andelot-Morval,municipality,39010,,Andelot-Morval,,39320,Andelot-Morval,"39, Jura, Bourgogne-Franche-Comté",39010,,,,ok
39320,Broissia,5.432545,46.359434,0.9228572727272726,0.4603213468013467,Broissia,municipality,39080,,Broissia,,39320,Broissia,"39, Jura, Bourgogne-Franche-Comté",39080,,,,ok
39320,Val d Epy,5.404546,46.385981,0.6093607486631015,0.5375318181818182,Val-d'Épy,municipality,39209,,Val-d'Épy,,39160,Val-d'Épy,"39, Jura, Bourgogne-Franche-Comté",39209,,,,ok
39320,Val d Epy,5.404546,46.385981,0.6093607486631015,0.5375318181818182,Val-d'Épy,municipality,39209,,Val-d'Épy,,39160,Val-d'Épy,"39, Jura, Bourgogne-Franche-Comté",39209,,,,ok
39320,Gigny,5.463291,46.448611,0.9295945454545453,0.5115752631578947,Gigny,municipality,39253,,Gigny,,39320,Gigny,"39, Jura, Bourgogne-Franche-Comté",39253,,,,ok
39320,Graye et Charnay,5.454063,46.476609,0.926591818181818,0.6364866862170087,Graye-et-Charnay,municipality,39261,,Graye-et-Charnay,,39320,Graye-et-Charnay,"39, Jura, Bourgogne-Franche-Comté",39261,,,,ok
39320,Montlainsia,5.487318,46.389057,0.9287154545454545,0.6288360606060606,Montlainsia,municipality,39273,,Montlainsia,,39320,Montlainsia,"39, Jura, Bourgogne-Franche-Comté",39273,,,,ok
39320,Montlainsia,5.487318,46.389057,0.9287154545454545,0.6288360606060606,Montlainsia,municipality,39273,,Montlainsia,,39320,Montlainsia,"39, Jura, Bourgogne-Franche-Comté",39273,,,,ok
39320,Montlainsia,5.487318,46.389057,0.9287154545454545,0.6288360606060606,Montlainsia,municipality,39273,,Montlainsia,,39320,Montlainsia,"39, Jura, Bourgogne-Franche-Comté",39273,,,,ok
39320,Loisia,5.451843,46.493273,0.9270509090909091,0.5474266985645933,Loisia,municipality,39295,,Loisia,,39320,Loisia,"39, Jura, Bourgogne-Franche-Comté",39295,,,,ok
39320,Monnetay,5.51306,46.452127,0.917480909090909,0.4354615584415584,Monnetay,municipality,39343,,Monnetay,,39320,Monnetay,"39, Jura, Bourgogne-Franche-Comté",39343,,,,ok
39320,Montfleur,5.444311,46.332268,0.9273881818181817,0.5535939393939394,Montfleur,municipality,39353,,Montfleur,,39320,Montfleur,"39, Jura, Bourgogne-Franche-Comté",39353,,,,ok
39320,Montrevel,5.487876,46.422312,0.9243445454545455,0.5185769696969696,Montrevel,municipality,39363,,Montrevel,,39320,Montrevel,"39, Jura, Bourgogne-Franche-Comté",39363,,,,ok
39320,Val Suran,5.43564,46.382569,0.9343954545454545,0.43901263929618767,Val Suran,municipality,39485,,Val Suran,,39320,Val Suran,"39, Jura, Bourgogne-Franche-Comté",39485,,,,ok
39320,Val Suran,5.43564,46.382569,0.9343954545454545,0.43901263929618767,Val Suran,municipality,39485,,Val Suran,,39320,Val Suran,"39, Jura, Bourgogne-Franche-Comté",39485,,,,ok
39320,Val Suran,5.43564,46.382569,0.9343954545454545,0.43901263929618767,Val Suran,municipality,39485,,Val Suran,,39320,Val Suran,"39, Jura, Bourgogne-Franche-Comté",39485,,,,ok
39320,Val Suran,5.43564,46.382569,0.9343954545454545,0.43901263929618767,Val Suran,municipality,39485,,Val Suran,,39320,Val Suran,"39, Jura, Bourgogne-Franche-Comté",39485,,,,ok
39160,Balanod,5.354074,46.453909,0.9306854545454545,0.5090401185770751,Balanod,municipality,39035,,Balanod,,39160,Balanod,"39, Jura, Bourgogne-Franche-Comté",39035,,,,ok
39160,Val d Epy,5.404546,46.385981,0.9302163636363636,0.646285933014354,Val-d'Épy,municipality,39209,,Val-d'Épy,,39160,Val-d'Épy,"39, Jura, Bourgogne-Franche-Comté",39209,,,,ok
39160,Val d Epy,5.404546,46.385981,0.9302163636363636,0.646285933014354,Val-d'Épy,municipality,39209,,Val-d'Épy,,39160,Val-d'Épy,"39, Jura, Bourgogne-Franche-Comté",39209,,,,ok
39160,Val d Epy,5.404546,46.385981,0.9302163636363636,0.646285933014354,Val-d'Épy,municipality,39209,,Val-d'Épy,,39160,Val-d'Épy,"39, Jura, Bourgogne-Franche-Comté",39209,,,,ok
39160,Val d Epy,5.404546,46.385981,0.9302163636363636,0.646285933014354,Val-d'Épy,municipality,39209,,Val-d'Épy,,39160,Val-d'Épy,"39, Jura, Bourgogne-Franche-Comté",39209,,,,ok
39160,Val d Epy,5.404546,46.385981,0.9302163636363636,0.646285933014354,Val-d'Épy,municipality,39209,,Val-d'Épy,,39160,Val-d'Épy,"39, Jura, Bourgogne-Franche-Comté",39209,,,,ok
39160,Montagna le Reconduit,5.395541,46.450686,0.9256254545454545,0.6257460606060605,Montagna-le-Reconduit,municipality,39346,,Montagna-le-Reconduit,,39160,Montagna-le-Reconduit,"39, Jura, Bourgogne-Franche-Comté",39346,,,,ok
39160,Les Trois Chateaux,5.362079,46.422334,0.9342963636363635,0.6817654545454545,Les Trois-Châteaux,municipality,39378,,Les Trois-Châteaux,,39160,Les Trois-Châteaux,"39, Jura, Bourgogne-Franche-Comté",39378,,,,ok
39160,Les Trois Chateaux,5.362079,46.422334,0.9342963636363635,0.6817654545454545,Les Trois-Châteaux,municipality,39378,,Les Trois-Châteaux,,39160,Les Trois-Châteaux,"39, Jura, Bourgogne-Franche-Comté",39378,,,,ok
39160,Les Trois Chateaux,5.362079,46.422334,0.9342963636363635,0.6817654545454545,Les Trois-Châteaux,municipality,39378,,Les Trois-Châteaux,,39160,Les Trois-Châteaux,"39, Jura, Bourgogne-Franche-Comté",39378,,,,ok
39160,Les Trois Chateaux,5.362079,46.422334,0.9342963636363635,0.6817654545454545,Les Trois-Châteaux,municipality,39378,,Les Trois-Châteaux,,39160,Les Trois-Châteaux,"39, Jura, Bourgogne-Franche-Comté",39378,,,,ok
39160,St Amour,5.344747,46.435919,0.6720403208556149,0.42873691699604743,Saint-Amour,municipality,39475,,Saint-Amour,,39160,Saint-Amour,"39, Jura, Bourgogne-Franche-Comté",39475,,,,ok
39160,Thoissia,5.395505,46.42273,0.9208645454545453,0.6369341148325358,Thoissia,municipality,39532,,Thoissia,,39160,Thoissia,"39, Jura, Bourgogne-Franche-Comté",39532,,,,ok
39160,Veria,5.423236,46.455885,0.9257436363636363,0.45270406926406925,Véria,municipality,39551,,Véria,,39160,Véria,"39, Jura, Bourgogne-Franche-Comté",39551,,,,ok
71480,Champagnat,5.368444,46.48491,0.9320545454545455,0.5537281818181818,Champagnat,municipality,71079,,Champagnat,,71480,Champagnat,"71, Saône-et-Loire, Bourgogne-Franche-Comté",71079,,,,ok
71480,Condal,5.287042,46.4665,0.9319763636363636,0.5022268398268398,Condal,municipality,71143,,Condal,,71480,Condal,"71, Saône-et-Loire, Bourgogne-Franche-Comté",71143,,,,ok
71480,Cuiseaux,5.361638,46.506184,0.9382681818181817,0.5140910276679842,Cuiseaux,municipality,71157,,Cuiseaux,,71480,Cuiseaux,"71, Saône-et-Loire, Bourgogne-Franche-Comté",71157,,,,ok
71480,Dommartin les Cuiseaux,5.293405,46.496683,0.9345718181818182,0.6895457416267942,Dommartin-lès-Cuiseaux,municipality,71177,,Dommartin-lès-Cuiseaux,,71480,Dommartin-lès-Cuiseaux,"71, Saône-et-Loire, Bourgogne-Franche-Comté",71177,,,,ok
71480,Joudes,5.355816,46.471811,0.9309763636363635,0.47958181818181816,Joudes,municipality,71243,,Joudes,,71480,Joudes,"71, Saône-et-Loire, Bourgogne-Franche-Comté",71243,,,,ok
71480,Le Miroir,5.346778,46.557487,0.9332645454545454,0.470250790513834,Le Miroir,municipality,71300,,Le Miroir,,71480,Le Miroir,"71, Saône-et-Loire, Bourgogne-Franche-Comté",71300,,,,ok
71480,Varennes St Sauveur,5.237723,46.504857,0.7736977922077921,0.5628185167464115,Varennes-Saint-Sauveur,municipality,71558,,Varennes-Saint-Sauveur,,71480,Varennes-Saint-Sauveur,"71, Saône-et-Loire, Bourgogne-Franche-Comté",71558,,,,ok
30290,Laudun l Ardoise,4.658462,44.10335,0.9440136363636363,0.6133000534759359,Laudun-l'Ardoise,municipality,30141,,Laudun-l'Ardoise,,30290,Laudun-l'Ardoise,"30, Gard, Occitanie",30141,,,,ok
30290,Laudun l Ardoise,4.658462,44.10335,0.9440136363636363,0.6133000534759359,Laudun-l'Ardoise,municipality,30141,,Laudun-l'Ardoise,,30290,Laudun-l'Ardoise,"30, Gard, Occitanie",30141,,,,ok
30290,St Victor la Coste,4.643848,44.059687,0.7707461952861951,0.590231961722488,Saint-Victor-la-Coste,municipality,30302,,Saint-Victor-la-Coste,,30290,Saint-Victor-la-Coste,"30, Gard, Occitanie",30302,,,,ok
95280,Jouy le Moutier,2.037578,49.012546,0.948421818181818,0.6779492476489029,Jouy-le-Moutier,municipality,95323,,Jouy-le-Moutier,,95280,Jouy-le-Moutier,"95, Val-d'Oise, Île-de-France",95323,,,,ok
95280,Jouy le Moutier,2.037578,49.012546,0.948421818181818,0.6779492476489029,Jouy-le-Moutier,municipality,95323,,Jouy-le-Moutier,,95280,Jouy-le-Moutier,"95, Val-d'Oise, Île-de-France",95323,,,,ok
95280,Jouy le Moutier,2.037578,49.012546,0.948421818181818,0.6779492476489029,Jouy-le-Moutier,municipality,95323,,Jouy-le-Moutier,,95280,Jouy-le-Moutier,"95, Val-d'Oise, Île-de-France",95323,,,,ok
95160,Montmorency,2.321985,48.989389,0.94952,0.5970214478114477,Montmorency,municipality,95428,,Montmorency,,95160,Montmorency,"95, Val-d'Oise, Île-de-France",95428,,,,ok
95600,Eaubonne,2.277576,48.9916,0.9501954545454545,0.5921328099173553,Eaubonne,municipality,95203,,Eaubonne,,95600,Eaubonne,"95, Val-d'Oise, Île-de-France",95203,,,,ok
95230,Soisy sous Montmorency,2.301698,48.988538,0.9486372727272726,0.7010884688995215,Soisy-sous-Montmorency,municipality,95598,,Soisy-sous-Montmorency,,95230,Soisy-sous-Montmorency,"95, Val-d'Oise, Île-de-France",95598,,,,ok
95880,Enghien les Bains,2.305251,48.971047,0.9465754545454546,0.67448,Enghien-les-Bains,municipality,95210,,Enghien-les-Bains,,95880,Enghien-les-Bains,"95, Val-d'Oise, Île-de-France",95210,,,,ok
95210,St Gratien,2.284955,48.968414,0.710071913875598,0.4678840495867768,Saint-Gratien,municipality,95555,,Saint-Gratien,,95210,Saint-Gratien,"95, Val-d'Oise, Île-de-France",95555,,,,ok
67390,Artolsheim,7.573502,48.20873,0.9354736363636362,0.6101651239669421,Artolsheim,municipality,67011,,Artolsheim,,67390,Artolsheim,"67, Bas-Rhin, Grand Est",67011,,,,ok
67390,Boesenbiesen,7.563586,48.227548,0.9303590909090909,0.5826680519480519,Bœsenbiesen,municipality,67053,,Bœsenbiesen,,67390,Bœsenbiesen,"67, Bas-Rhin, Grand Est",67053,,,,ok
67390,Bootzheim,7.574428,48.188949,0.9344418181818182,0.5765046280991736,Bootzheim,municipality,67056,,Bootzheim,,67390,Bootzheim,"67, Bas-Rhin, Grand Est",67056,,,,ok
67390,Elsenheim,7.499071,48.161444,0.9345099999999998,0.5634167193675887,Elsenheim,municipality,67121,,Elsenheim,,67390,Elsenheim,"67, Bas-Rhin, Grand Est",67121,,,,ok
67390,Heidolsheim,7.515768,48.201914,0.9329172727272725,0.6102036363636364,Heidolsheim,municipality,67187,,Heidolsheim,,67390,Heidolsheim,"67, Bas-Rhin, Grand Est",67187,,,,ok
67390,Hessenheim,7.555351,48.208753,0.93336,0.5876160474308301,Hessenheim,municipality,67195,,Hessenheim,,67390,Hessenheim,"67, Bas-Rhin, Grand Est",67195,,,,ok
67390,Mackenheim,7.564849,48.183826,0.9343554545454544,0.5910196837944663,Mackenheim,municipality,67277,,Mackenheim,,67390,Mackenheim,"67, Bas-Rhin, Grand Est",67277,,,,ok
67390,Marckolsheim,7.556024,48.163517,0.9421390909090909,0.7443720661157024,Marckolsheim,municipality,67281,,Marckolsheim,,67390,Marckolsheim,"67, Bas-Rhin, Grand Est",67281,,,,ok
67390,Ohnenheim,7.506012,48.18322,0.936131818181818,0.636251515151515,Ohnenheim,municipality,67360,,Ohnenheim,,67390,Ohnenheim,"67, Bas-Rhin, Grand Est",67360,,,,ok
67390,Richtolsheim,7.595039,48.225121,0.930989090909091,0.5579644514106582,Richtolsheim,municipality,67398,,Richtolsheim,,67390,Richtolsheim,"67, Bas-Rhin, Grand Est",67398,,,,ok
67390,Saasenheim,7.61842,48.234199,0.9330672727272725,0.5953081818181817,Saasenheim,municipality,67422,,Saasenheim,,67390,Saasenheim,"67, Bas-Rhin, Grand Est",67422,,,,ok
67390,Schoenau,7.646169,48.222795,0.9334027272727272,0.5577087012987013,Schœnau,municipality,67453,,Schœnau,,67390,Schœnau,"67, Bas-Rhin, Grand Est",67453,,,,ok
67390,Schwobsheim,7.575763,48.231637,0.9304563636363635,0.6044463636363636,Schwobsheim,municipality,67461,,Schwobsheim,,67390,Schwobsheim,"67, Bas-Rhin, Grand Est",67461,,,,ok
83560,Artigues,5.810182,43.5936,0.9298854545454546,0.49851545454545454,Artigues,municipality,83006,,Artigues,,83560,Artigues,"83, Var, Provence-Alpes-Côte d'Azur",83006,,,,ok
83560,Esparron,5.849465,43.591515,0.9310254545454544,0.6159945454545455,Esparron,municipality,83052,,Esparron,,83560,Esparron,"83, Var, Provence-Alpes-Côte d'Azur",83052,,,,ok
83560,Ginasservis,5.839442,43.656121,0.9386145454545454,0.5844050841750841,Ginasservis,municipality,83066,,Ginasservis,,83560,Ginasservis,"83, Var, Provence-Alpes-Côte d'Azur",83066,,,,ok
83560,Rians,5.744732,43.612322,0.9420999999999999,0.46067768595041314,Rians,municipality,83104,,Rians,,83560,Rians,"83, Var, Provence-Alpes-Côte d'Azur",83104,,,,ok
83560,St Julien,5.916268,43.68824,0.6869447474747474,0.4962190909090909,Saint-Julien,municipality,83113,,Saint-Julien,,83560,Saint-Julien,"83, Var, Provence-Alpes-Côte d'Azur",83113,,,,ok
83560,St Martin de Pallieres,5.882963,43.592297,0.7827806158357771,0.5999639467849224,Saint-Martin-de-Pallières,municipality,83114,,Saint-Martin-de-Pallières,,83560,Saint-Martin-de-Pallières,"83, Var, Provence-Alpes-Côte d'Azur",83114,,,,ok
83560,La Verdiere,5.937909,43.653205,0.9377836363636364,0.6710910671936758,La Verdière,municipality,83146,,La Verdière,,83560,La Verdière,"83, Var, Provence-Alpes-Côte d'Azur",83146,,,,ok
83560,Vinon sur Verdon,5.811897,43.728848,0.9421636363636363,0.7253572727272727,Vinon-sur-Verdon,municipality,83150,,Vinon-sur-Verdon,,83560,Vinon-sur-Verdon,"83, Var, Provence-Alpes-Côte d'Azur",83150,,,,ok
82710,Bressols,1.318373,43.948741,0.9414818181818182,0.5155845454545455,Bressols,municipality,82025,,Bressols,,82710,Bressols,"82, Tarn-et-Garonne, Occitanie",82025,,,,ok
67450,Lampertheim,7.70283,48.650282,0.9411399999999999,0.6540024242424242,Lampertheim,municipality,67256,,Lampertheim,,67450,Lampertheim,"67, Bas-Rhin, Grand Est",67256,,,,ok
67450,Mundolsheim,7.716596,48.638775,0.942880909090909,0.6269036363636363,Mundolsheim,municipality,67309,,Mundolsheim,,67450,Mundolsheim,"67, Bas-Rhin, Grand Est",67309,,,,ok
36300,Le Blanc,1.089322,46.631913,0.9437945454545453,0.5442242424242424,Le Blanc,municipality,36018,,Le Blanc,,36300,Le Blanc,"36, Indre, Centre-Val de Loire",36018,,,,ok
36300,Ciron,1.253925,46.631803,0.9325845454545454,0.6759951948051948,Ciron,municipality,36053,,Ciron,,36300,Ciron,"36, Indre, Centre-Val de Loire",36053,,,,ok
36300,Ciron,1.253925,46.631803,0.9325845454545454,0.6759951948051948,Ciron,municipality,36053,,Ciron,,36300,Ciron,"36, Indre, Centre-Val de Loire",36053,,,,ok
36300,Concremiers,1.018465,46.591683,0.9332863636363636,0.6982306611570247,Concremiers,municipality,36058,,Concremiers,,36300,Concremiers,"36, Indre, Centre-Val de Loire",36058,,,,ok
36300,Douadic,1.10853,46.704404,0.9320154545454545,0.6727803208556149,Douadic,municipality,36066,,Douadic,,36300,Douadic,"36, Indre, Centre-Val de Loire",36066,,,,ok
36300,Ingrandes,0.959901,46.599791,0.9301136363636363,0.5382581818181819,Ingrandes,municipality,36087,,Ingrandes,,36300,Ingrandes,"36, Indre, Centre-Val de Loire",36087,,,,ok
36300,Pouligny St Pierre,1.054701,46.682725,0.7672580134680134,0.6811303812316716,Pouligny-Saint-Pierre,municipality,36165,,Pouligny-Saint-Pierre,,36300,Pouligny-Saint-Pierre,"36, Indre, Centre-Val de Loire",36165,,,,ok
36300,Rosnay,1.221609,46.707921,0.93255,0.5323036363636363,Rosnay,municipality,36173,,Rosnay,,36300,Rosnay,"36, Indre, Centre-Val de Loire",36173,,,,ok
36300,Ruffec,1.171164,46.614152,0.9330045454545454,0.582620101010101,Ruffec,municipality,36176,,Ruffec,,36300,Ruffec,"36, Indre, Centre-Val de Loire",36176,,,,ok
36300,St Aigny,1.011153,46.633669,0.6622148663101604,0.4600181818181818,Saint-Aigny,municipality,36178,,Saint-Aigny,,36300,Saint-Aigny,"36, Indre, Centre-Val de Loire",36178,,,,ok
31330,Le Burgaud,1.154503,43.785027,0.9352290909090908,0.6591110743801653,Le Burgaud,municipality,31093,,Le Burgaud,,31330,Le Burgaud,"31, Haute-Garonne, Occitanie",31093,,,,ok
31330,Grenade,1.289253,43.763715,0.9454654545454544,0.552795950413223,Grenade,municipality,31232,,Grenade,,31330,Grenade,"31, Haute-Garonne, Occitanie",31232,,,,ok
31330,Launac,1.180009,43.752005,0.9367472727272727,0.571173062200957,Launac,municipality,31281,,Launac,,31330,Launac,"31, Haute-Garonne, Occitanie",31281,,,,ok
31330,Merville,1.297893,43.723375,0.9439645454545454,0.5441778787878787,Merville,municipality,31341,,Merville,,31330,Merville,"31, Haute-Garonne, Occitanie",31341,,,,ok
31330,Ondes,1.30662,43.787305,0.9345381818181817,0.4633413419913419,Ondes,municipality,31403,,Ondes,,31330,Ondes,"31, Haute-Garonne, Occitanie",31403,,,,ok
31330,St Cezert,1.192194,43.781747,0.6792702020202019,0.4804009090909091,Saint-Cézert,municipality,31473,,Saint-Cézert,,31330,Saint-Cézert,"31, Haute-Garonne, Occitanie",31473,,,,ok
31330,Larra,1.217016,43.735793,0.9390472727272727,0.5678657219251337,Larra,municipality,31592,,Larra,,31330,Larra,"31, Haute-Garonne, Occitanie",31592,,,,ok
91070,Bondoufle,2.376259,48.612352,0.9463390909090907,0.5441623076923076,Bondoufle,municipality,91086,,Bondoufle,,91070,Bondoufle,"91, Essonne, Île-de-France",91086,,,,ok
79000,Bessines,-0.51113,46.297382,0.9382454545454545,0.5694955371900826,Bessines,municipality,79034,,Bessines,,79000,Bessines,"79, Deux-Sèvres, Nouvelle-Aquitaine",79034,,,,ok
79000,Niort,-0.466291,46.327232,0.9540545454545454,0.5188845454545454,Niort,municipality,79191,,Niort,,79000,Niort,"79, Deux-Sèvres, Nouvelle-Aquitaine",79191,,,,ok
79000,Niort,-0.466291,46.327232,0.9540545454545454,0.5188845454545454,Niort,municipality,79191,,Niort,,79000,Niort,"79, Deux-Sèvres, Nouvelle-Aquitaine",79191,,,,ok
79000,Niort,-0.466291,46.327232,0.9540545454545454,0.5188845454545454,Niort,municipality,79191,,Niort,,79000,Niort,"79, Deux-Sèvres, Nouvelle-Aquitaine",79191,,,,ok
79000,Niort,-0.466291,46.327232,0.9540545454545454,0.5188845454545454,Niort,municipality,79191,,Niort,,79000,Niort,"79, Deux-Sèvres, Nouvelle-Aquitaine",79191,,,,ok
79000,Niort,-0.466291,46.327232,0.9540545454545454,0.5188845454545454,Niort,municipality,79191,,Niort,,79000,Niort,"79, Deux-Sèvres, Nouvelle-Aquitaine",79191,,,,ok
79000,Sciecq,-0.475373,46.373166,0.9335799999999999,0.5831946464646465,Sciecq,municipality,79308,,Sciecq,,79000,Sciecq,"79, Deux-Sèvres, Nouvelle-Aquitaine",79308,,,,ok
93220,Gagny,2.545588,48.881899,0.9522854545454545,0.5179872727272727,Gagny,municipality,93032,,Gagny,,93220,Gagny,"93, Seine-Saint-Denis, Île-de-France",93032,,,,ok
86150,L Isle Jourdain,0.690563,46.23256,0.9362099999999999,0.6167793548387096,L'Isle-Jourdain,municipality,86112,,L'Isle-Jourdain,,86150,L'Isle-Jourdain,"86, Vienne, Nouvelle-Aquitaine",86112,,,,ok
86150,Millac,0.699019,46.188662,0.9323272727272727,0.6209234759358289,Millac,municipality,86159,,Millac,,86150,Millac,"86, Vienne, Nouvelle-Aquitaine",86159,,,,ok
86150,Moussac,0.67792,46.27042,0.9317018181818181,0.5000701185770751,Moussac,municipality,86171,,Moussac,,86150,Moussac,"86, Vienne, Nouvelle-Aquitaine",86171,,,,ok
86150,Nerignac,0.726427,46.293713,0.92608,0.44996701298701297,Nérignac,municipality,86176,,Nérignac,,86150,Nérignac,"86, Vienne, Nouvelle-Aquitaine",86176,,,,ok
86150,Queaux,0.659896,46.315783,0.9327699999999999,0.6272207486631016,Queaux,municipality,86203,,Queaux,,86150,Queaux,"86, Vienne, Nouvelle-Aquitaine",86203,,,,ok
86150,Le Vigeant,0.653135,46.2254,0.9336345454545455,0.5958763636363636,Le Vigeant,municipality,86289,,Le Vigeant,,86150,Le Vigeant,"86, Vienne, Nouvelle-Aquitaine",86289,,,,ok
66740,Laroque des Alberes,2.930892,42.529275,0.9391254545454544,0.6505406060606059,Laroque-des-Albères,municipality,66093,,Laroque-des-Albères,,66740,Laroque-des-Albères,"66, Pyrénées-Orientales, Occitanie",66093,,,,ok
66740,Montesquieu des Alberes,2.868538,42.532387,0.9366036363636363,0.7155846411483253,Montesquieu-des-Albères,municipality,66115,,Montesquieu-des-Albères,,66740,Montesquieu-des-Albères,"66, Pyrénées-Orientales, Occitanie",66115,,,,ok
66740,St Genis des Fontaines,2.926141,42.545603,0.793729706744868,0.5836028099173554,Saint-Génis-des-Fontaines,municipality,66175,,Saint-Génis-des-Fontaines,,66740,Saint-Génis-des-Fontaines,"66, Pyrénées-Orientales, Occitanie",66175,,,,ok
66740,Villelongue Dels Monts,2.900714,42.528137,0.9383190909090908,0.6680506293706293,Villelongue-dels-Monts,municipality,66225,,Villelongue-dels-Monts,,66740,Villelongue-dels-Monts,"66, Pyrénées-Orientales, Occitanie",66225,,,,ok
30560,St Hilaire de Brethmas,4.122238,44.093183,0.7958242521994134,0.5696239920948616,Saint-Hilaire-de-Brethmas,municipality,30259,,Saint-Hilaire-de-Brethmas,,30560,Saint-Hilaire-de-Brethmas,"30, Gard, Occitanie",30259,,,,ok
33650,Cabanac et Villagrains,-0.548047,44.596733,0.9394890909090909,0.7596387700534758,Cabanac-et-Villagrains,municipality,33077,,Cabanac-et-Villagrains,,33650,Cabanac-et-Villagrains,"33, Gironde, Nouvelle-Aquitaine",33077,,,,ok
33650,La Brede,-0.526691,44.678947,0.9423045454545453,0.60829329004329,La Brède,municipality,33213,,La Brède,,33650,La Brède,"33, Gironde, Nouvelle-Aquitaine",33213,,,,ok
33650,Martillac,-0.554606,44.725144,0.9411999999999999,0.5917696837944664,Martillac,municipality,33274,,Martillac,,33650,Martillac,"33, Gironde, Nouvelle-Aquitaine",33274,,,,ok
33650,St Medard d Eyrans,-0.510922,44.709759,0.7725261952861951,0.6231707486631016,Saint-Médard-d'Eyrans,municipality,33448,,Saint-Médard-d'Eyrans,,33650,Saint-Médard-d'Eyrans,"33, Gironde, Nouvelle-Aquitaine",33448,,,,ok
33650,St Morillon,-0.524899,44.64435,0.7108672727272727,0.5639909790209789,Saint-Morillon,municipality,33454,,Saint-Morillon,,33650,Saint-Morillon,"33, Gironde, Nouvelle-Aquitaine",33454,,,,ok
33650,St Selve,-0.476187,44.665635,0.6739148663101604,0.4630786013986014,Saint-Selve,municipality,33474,,Saint-Selve,,33650,Saint-Selve,"33, Gironde, Nouvelle-Aquitaine",33474,,,,ok
33650,Saucats,-0.615293,44.651076,0.9410463636363635,0.6203708612440191,Saucats,municipality,33501,,Saucats,,33650,Saucats,"33, Gironde, Nouvelle-Aquitaine",33501,,,,ok
44660,Ferce,-1.388404,47.792505,0.9322536363636363,0.5994890909090909,Fercé,municipality,44058,,Fercé,,44660,Fercé,"44, Loire-Atlantique, Pays de la Loire",44058,,,,ok
44660,Rouge,-1.425585,47.764031,0.9389736363636364,0.6119027272727273,Rougé,municipality,44146,,Rougé,,44660,Rougé,"44, Loire-Atlantique, Pays de la Loire",44146,,,,ok
44660,Ruffigne,-1.49265,47.756782,0.9339454545454544,0.5907760173160173,Ruffigné,municipality,44148,,Ruffigné,,44660,Ruffigné,"44, Loire-Atlantique, Pays de la Loire",44148,,,,ok
44660,Soulvache,-1.455076,47.820297,0.9306190909090909,0.6031914876033058,Soulvache,municipality,44200,,Soulvache,,44660,Soulvache,"44, Loire-Atlantique, Pays de la Loire",44200,,,,ok
31440,Argut Dessous,longitude,latitude,result_score,result_score_next,result_label,result_type,result_id,result_housenumber,result_name,result_street,result_postcode,result_city,result_context,result_citycode,result_oldcitycode,result_oldcity,result_district,result_status
31440,Arlos,0.70218,42.891578,0.9252945454545455,0.5293986868686869,Arlos,municipality,31017,,Arlos,,31440,Arlos,"31, Haute-Garonne, Occitanie",31017,,,,ok
31440,Bachos,0.61893,42.896725,0.9205109090909089,0.63957,Bachos,municipality,31040,,Bachos,,31440,Bachos,"31, Haute-Garonne, Occitanie",31040,,,,ok
31440,Baren,0.618745,42.868894,0.9164063636363635,0.5228323232323232,Baren,municipality,31046,,Baren,,31440,Baren,"31, Haute-Garonne, Occitanie",31046,,,,ok
31440,Bezins Garraux,0.690825,42.931718,0.9214999999999999,0.6552906397306397,Bezins-Garraux,municipality,31067,,Bezins-Garraux,,31440,Bezins-Garraux,"31, Haute-Garonne, Occitanie",31067,,,,ok
31440,Boutx,0.769239,42.91245,0.5097750349650348,0.4779609090909091,Boutx,municipality,31085,,Boutx,,31160,Boutx,"31, Haute-Garonne, Occitanie",31085,,,,ok
31440,Boutx,0.769239,42.91245,0.5097750349650348,0.4779609090909091,Boutx,municipality,31085,,Boutx,,31160,Boutx,"31, Haute-Garonne, Occitanie",31085,,,,ok
31440,Burgalays,0.626706,42.894746,0.925970909090909,0.698731913875598,Burgalays,municipality,31092,,Burgalays,,31440,Burgalays,"31, Haute-Garonne, Occitanie",31092,,,,ok
31440,Cazaux Layrisse,0.608231,42.869181,0.9232090909090909,0.7165697902097902,Cazaux-Layrisse,municipality,31132,,Cazaux-Layrisse,,31440,Cazaux-Layrisse,"31, Haute-Garonne, Occitanie",31132,,,,ok
31440,Chaum,0.654605,42.937537,0.9281345454545453,0.6314060606060605,Chaum,municipality,31139,,Chaum,,31440,Chaum,"31, Haute-Garonne, Occitanie",31139,,,,ok
31440,Cierp Gaud,0.642311,42.918349,0.9339390909090909,0.7129681818181818,Cierp-Gaud,municipality,31144,,Cierp-Gaud,,31440,Cierp-Gaud,"31, Haute-Garonne, Occitanie",31144,,,,ok
31440,Cierp Gaud,0.642311,42.918349,0.9339390909090909,0.7129681818181818,Cierp-Gaud,municipality,31144,,Cierp-Gaud,,31440,Cierp-Gaud,"31, Haute-Garonne, Occitanie",31144,,,,ok
31440,Estenos,0.640198,42.947012,0.9280418181818181,0.6323269696969696,Esténos,municipality,31176,,Esténos,,31440,Esténos,"31, Haute-Garonne, Occitanie",31176,,,,ok
31440,Eup,0.684463,42.926835,0.9264936363636362,0.47509909090909086,Eup,municipality,31177,,Eup,,31440,Eup,"31, Haute-Garonne, Occitanie",31177,,,,ok
31440,Fos,0.736275,42.871863,0.9289136363636363,0.5824141958041958,Fos,municipality,31190,,Fos,,31440,Fos,"31, Haute-Garonne, Occitanie",31190,,,,ok
31440,Fronsac,0.649212,42.953563,0.9280418181818181,0.6313133333333332,Fronsac,municipality,31199,,Fronsac,,31440,Fronsac,"31, Haute-Garonne, Occitanie",31199,,,,ok
31440,Guran,0.615939,42.886697,0.9223945454545455,0.6689551948051947,Guran,municipality,31235,,Guran,,31440,Guran,"31, Haute-Garonne, Occitanie",31235,,,,ok
31440,Lege,0.610994,42.876184,0.9203863636363635,0.4957288770053475,Lège,municipality,31290,,Lège,,31440,Lège,"31, Haute-Garonne, Occitanie",31290,,,,ok
31440,Marignac,0.656072,42.916228,0.9323818181818181,0.6215154545454545,Marignac,municipality,31316,,Marignac,,31440,Marignac,"31, Haute-Garonne, Occitanie",31316,,,,ok
31440,Melles,0.775936,42.87205,0.9245509090909091,0.6110107486631016,Melles,municipality,31337,,Melles,,31440,Melles,"31, Haute-Garonne, Occitanie",31337,,,,ok
31440,St Beat Lez,0.687472,42.909919,0.7039081818181817,0.602580909090909,Saint-Béat-Lez,municipality,31471,,Saint-Béat-Lez,,31440,Saint-Béat-Lez,"31, Haute-Garonne, Occitanie",31471,,,,ok
31440,St Beat Lez,0.687472,42.909919,0.7039081818181817,0.602580909090909,Saint-Béat-Lez,municipality,31471,,Saint-Béat-Lez,,31440,Saint-Béat-Lez,"31, Haute-Garonne, Occitanie",31471,,,,ok
31440,Signac,0.630921,42.906908,0.9215981818181816,0.6038925668449198,Signac,municipality,31548,,Signac,,31440,Signac,"31, Haute-Garonne, Occitanie",31548,,,,ok
31440,Binos,0.616323,42.900259,0.9215981818181816,0.6217178787878787,Binos,municipality,31590,,Binos,,31440,Binos,"31, Haute-Garonne, Occitanie",31590,,,,ok
91210,Draveil,2.412138,48.677829,0.9508290909090907,0.5549095867768594,Draveil,municipality,91201,,Draveil,,91210,Draveil,"91, Essonne, Île-de-France",91201,,,,ok
91210,Draveil,2.412138,48.677829,0.9508290909090907,0.5549095867768594,Draveil,municipality,91201,,Draveil,,91210,Draveil,"91, Essonne, Île-de-France",91201,,,,ok
91450,Etiolles,2.471442,48.639156,0.9406227272727272,0.5399851515151515,Étiolles,municipality,91225,,Étiolles,,91450,Étiolles,"91, Essonne, Île-de-France",91225,,,,ok
91450,Soisy sur Seine,2.448895,48.648028,0.9445472727272727,0.6152972727272726,Soisy-sur-Seine,municipality,91600,,Soisy-sur-Seine,,91450,Soisy-sur-Seine,"91, Essonne, Île-de-France",91600,,,,ok
91000,Evry Courcouronnes,2.433066,48.627362,0.9545527272727272,0.6571162337662337,Évry-Courcouronnes,municipality,91228,,Évry-Courcouronnes,,91000,Évry-Courcouronnes,"91, Essonne, Île-de-France",91228,,,,ok
91100,Corbeil Essonnes,2.465045,48.598229,0.9535154545454545,0.6819066862170087,Corbeil-Essonnes,municipality,91174,,Corbeil-Essonnes,,91100,Corbeil-Essonnes,"91, Essonne, Île-de-France",91174,,,,ok
91100,Villabe,2.453037,48.587688,0.9432118181818181,0.5419841322314048,Villabé,municipality,91659,,Villabé,,91100,Villabé,"91, Essonne, Île-de-France",91659,,,,ok
34490,Causses et Veyran,3.089132,43.468844,0.9333818181818182,0.7244124451410657,Causses-et-Veyran,municipality,34061,,Causses-et-Veyran,,34490,Causses-et-Veyran,"34, Hérault, Occitanie",34061,,,,ok
34490,Corneilhan,3.193152,43.400186,0.9378163636363636,0.5864890909090908,Corneilhan,municipality,34084,,Corneilhan,,34490,Corneilhan,"34, Hérault, Occitanie",34084,,,,ok
34490,Lignan sur Orb,3.172183,43.382554,0.9408209090909089,0.6179539393939393,Lignan-sur-Orb,municipality,34140,,Lignan-sur-Orb,,34490,Lignan-sur-Orb,"34, Hérault, Occitanie",34140,,,,ok
34490,Murviel les Beziers,3.122224,43.453333,0.9406090909090908,0.6958261157024792,Murviel-lès-Béziers,municipality,34178,,Murviel-lès-Béziers,,34490,Murviel-lès-Béziers,"34, Hérault, Occitanie",34178,,,,ok
34490,Pailhes,3.187598,43.433879,0.9331363636363637,0.4958736363636363,Pailhès,municipality,34191,,Pailhès,,34490,Pailhès,"34, Hérault, Occitanie",34191,,,,ok
34490,St Nazaire de Ladarez,3.075125,43.510603,0.7788584848484847,0.6225188516746412,Saint-Nazaire-de-Ladarez,municipality,34279,,Saint-Nazaire-de-Ladarez,,34490,Saint-Nazaire-de-Ladarez,"34, Hérault, Occitanie",34279,,,,ok
34490,Thezan les Beziers,3.166091,43.415967,0.9405872727272726,0.6451880519480518,Thézan-lès-Béziers,municipality,34310,,Thézan-lès-Béziers,,34490,Thézan-lès-Béziers,"34, Hérault, Occitanie",34310,,,,ok
30320,Bezouce,4.49355,43.8834,0.9393427272727272,0.5412659504132231,Bezouce,municipality,30039,,Bezouce,,30320,Bezouce,"30, Gard, Occitanie",30039,,,,ok
30320,Marguerittes,4.444726,43.861434,0.9452072727272727,0.6256032996632996,Marguerittes,municipality,30156,,Marguerittes,,30320,Marguerittes,"30, Gard, Occitanie",30156,,,,ok
30320,Poulx,4.418261,43.90876,0.9420627272727273,0.5006545454545454,Poulx,municipality,30206,,Poulx,,30320,Poulx,"30, Gard, Occitanie",30206,,,,ok
30320,St Gervasy,4.465802,43.88341,0.6994055502392343,0.5648457575757575,Saint-Gervasy,municipality,30257,,Saint-Gervasy,,30320,Saint-Gervasy,"30, Gard, Occitanie",30257,,,,ok
31120,Goyrans,1.431007,43.482529,0.9347681818181818,0.6380387878787878,Goyrans,municipality,31227,,Goyrans,,31120,Goyrans,"31, Haute-Garonne, Occitanie",31227,,,,ok
31120,Lacroix Falgarde,1.426316,43.498762,0.9387945454545454,0.7399252525252524,Lacroix-Falgarde,municipality,31259,,Lacroix-Falgarde,,31120,Lacroix-Falgarde,"31, Haute-Garonne, Occitanie",31259,,,,ok
31120,Pinsaguel,1.39149,43.500239,0.9401781818181817,0.6421415151515151,Pinsaguel,municipality,31420,,Pinsaguel,,31120,Pinsaguel,"31, Haute-Garonne, Occitanie",31420,,,,ok
31120,Portet sur Garonne,1.396832,43.529131,0.9458745454545454,0.6689578074866309,Portet-sur-Garonne,municipality,31433,,Portet-sur-Garonne,,31120,Portet-sur-Garonne,"31, Haute-Garonne, Occitanie",31433,,,,ok
31120,Roques,1.360511,43.504401,0.9429181818181817,0.566443971291866,Roques,municipality,31458,,Roques,,31120,Roques,"31, Haute-Garonne, Occitanie",31458,,,,ok
31120,Roquettes,1.372253,43.496038,0.9421263636363635,0.6165414876033057,Roquettes,municipality,31460,,Roquettes,,31120,Roquettes,"31, Haute-Garonne, Occitanie",31460,,,,ok
31100,Toulouse,1.433805,43.604082,0.833910779220779,0.5900121739130434,Toulouse,municipality,31555,,Toulouse,,31000,Toulouse,"31, Haute-Garonne, Occitanie",31555,,,,ok
60540,Belle Eglise,2.207974,49.182066,0.9338290909090908,0.5689489968652037,Belle-Église,municipality,60060,,Belle-Église,,60540,Belle-Église,"60, Oise, Hauts-de-France",60060,,,,ok
60540,Bornel,2.194276,49.208652,0.9426145454545453,0.5277461722488037,Bornel,municipality,60088,,Bornel,,60540,Bornel,"60, Oise, Hauts-de-France",60088,,,,ok
60540,Bornel,2.194276,49.208652,0.9426145454545453,0.5277461722488037,Bornel,municipality,60088,,Bornel,,60540,Bornel,"60, Oise, Hauts-de-France",60088,,,,ok
60540,Bornel,2.194276,49.208652,0.9426145454545453,0.5277461722488037,Bornel,municipality,60088,,Bornel,,60540,Bornel,"60, Oise, Hauts-de-France",60088,,,,ok
60540,Puiseux le Hauberger,2.236439,49.214467,0.9347254545454544,0.6800167676767677,Puiseux-le-Hauberger,municipality,60517,,Puiseux-le-Hauberger,,60540,Puiseux-le-Hauberger,"60, Oise, Hauts-de-France",60517,,,,ok
73290,La Motte Servolex,5.865595,45.606919,0.9469045454545454,0.6053646464646465,La Motte-Servolex,municipality,73179,,La Motte-Servolex,,73290,La Motte-Servolex,"73, Savoie, Auvergne-Rhône-Alpes",73179,,,,ok
76450,Auberville la Manuel,0.590969,49.82785,0.926591818181818,0.6205806698564593,Auberville-la-Manuel,municipality,76032,,Auberville-la-Manuel,,76450,Auberville-la-Manuel,"76, Seine-Maritime, Normandie",76032,,,,ok
76450,Bertheauville,0.592765,49.754627,0.9250754545454544,0.6077155844155845,Bertheauville,municipality,76083,,Bertheauville,,76450,Bertheauville,"76, Seine-Maritime, Normandie",76083,,,,ok
76450,Bertreville,0.581157,49.765348,0.925970909090909,0.543675974025974,Bertreville,municipality,76084,,Bertreville,,76450,Bertreville,"76, Seine-Maritime, Normandie",76084,,,,ok
76450,Beuzeville la Guerard,0.608502,49.709368,0.9289327272727271,0.673293366093366,Beuzeville-la-Guérard,municipality,76091,,Beuzeville-la-Guérard,,76450,Beuzeville-la-Guérard,"76, Seine-Maritime, Normandie",76091,,,,ok
76450,Bosville,0.683676,49.767426,0.93309,0.5209364822134387,Bosville,municipality,76128,,Bosville,,76450,Bosville,"76, Seine-Maritime, Normandie",76128,,,,ok
76450,Canouville,0.60287,49.806232,0.9306981818181818,0.5605282517482516,Canouville,municipality,76156,,Canouville,,76450,Canouville,"76, Seine-Maritime, Normandie",76156,,,,ok
76450,Cany Barville,0.63431,49.78241,0.9404136363636362,0.6455278787878787,Cany-Barville,municipality,76159,,Cany-Barville,,76450,Cany-Barville,"76, Seine-Maritime, Normandie",76159,,,,ok
76450,Clasville,0.62312,49.792649,0.93075,0.5628621212121212,Clasville,municipality,76176,,Clasville,,76450,Clasville,"76, Seine-Maritime, Normandie",76176,,,,ok
76450,Cleuville,0.639562,49.704599,0.9279472727272727,0.5236751515151514,Cleuville,municipality,76180,,Cleuville,,76450,Cleuville,"76, Seine-Maritime, Normandie",76180,,,,ok
76450,Crasville la Mallet,0.715756,49.805562,0.9277018181818182,0.6578802597402598,Crasville-la-Mallet,municipality,76189,,Crasville-la-Mallet,,76450,Crasville-la-Mallet,"76, Seine-Maritime, Normandie",76189,,,,ok
76450,Grainville la Teinturiere,0.636291,49.745811,0.9358245454545453,0.7475878947368421,Grainville-la-Teinturière,municipality,76315,,Grainville-la-Teinturière,,76450,Grainville-la-Teinturière,"76, Seine-Maritime, Normandie",76315,,,,ok
76450,Le Hanouard,0.65498,49.727941,0.9294427272727271,0.5164948484848485,Le Hanouard,municipality,76339,,Le Hanouard,,76450,Le Hanouard,"76, Seine-Maritime, Normandie",76339,,,,ok
76450,Hautot l Auvray,0.751241,49.762072,0.9302599999999999,0.5993381818181818,Hautot-l'Auvray,municipality,76346,,Hautot-l'Auvray,,76450,Hautot-l'Auvray,"76, Seine-Maritime, Normandie",76346,,,,ok
76450,Malleville les Gres,0.605066,49.83258,0.9283590909090909,0.6038972248803827,Malleville-les-Grès,municipality,76403,,Malleville-les-Grès,,76450,Malleville-les-Grès,"76, Seine-Maritime, Normandie",76403,,,,ok
76450,Ocqueville,0.685801,49.796826,0.9318463636363636,0.569770303030303,Ocqueville,municipality,76480,,Ocqueville,,76450,Ocqueville,"76, Seine-Maritime, Normandie",76480,,,,ok
76450,Ouainville,0.589472,49.787039,0.9326099999999999,0.5380136363636364,Ouainville,municipality,76488,,Ouainville,,76450,Ouainville,"76, Seine-Maritime, Normandie",76488,,,,ok
76450,Ourville en Caux,0.600061,49.728167,0.9359618181818181,0.6458575953079179,Ourville-en-Caux,municipality,76490,,Ourville-en-Caux,,76450,Ourville-en-Caux,"76, Seine-Maritime, Normandie",76490,,,,ok
76450,Paluel,0.626675,49.843402,0.9313081818181819,0.46621861471861464,Paluel,municipality,76493,,Paluel,,76450,Paluel,"76, Seine-Maritime, Normandie",76493,,,,ok
76450,St Martin aux Buneaux,0.547097,49.823094,0.7819875757575757,0.6166142191142191,Saint-Martin-aux-Buneaux,municipality,76613,,Saint-Martin-aux-Buneaux,,76450,Saint-Martin-aux-Buneaux,"76, Seine-Maritime, Normandie",76613,,,,ok
76450,St Vaast Dieppedalle,0.720988,49.756906,0.7743338244514106,0.6084554066985646,Saint-Vaast-Dieppedalle,municipality,76653,,Saint-Vaast-Dieppedalle,,76450,Saint-Vaast-Dieppedalle,"76, Seine-Maritime, Normandie",76653,,,,ok
76450,Sasseville,0.681887,49.785637,0.9295945454545453,0.5413077777777777,Sasseville,municipality,76664,,Sasseville,,76450,Sasseville,"76, Seine-Maritime, Normandie",76664,,,,ok
76450,Thiouville,0.624935,49.689661,0.9298063636363637,0.5514918881118881,Thiouville,municipality,76692,,Thiouville,,76450,Thiouville,"76, Seine-Maritime, Normandie",76692,,,,ok
76450,Butot Venesville,0.584373,49.814408,0.9290472727272726,0.6101269421487603,Butot-Vénesville,municipality,76732,,Butot-Vénesville,,76450,Butot-Vénesville,"76, Seine-Maritime, Normandie",76732,,,,ok
76450,Butot Venesville,0.584373,49.814408,0.9290472727272726,0.6101269421487603,Butot-Vénesville,municipality,76732,,Butot-Vénesville,,76450,Butot-Vénesville,"76, Seine-Maritime, Normandie",76732,,,,ok
76450,Veulettes sur Mer,0.586952,49.848146,0.9297099999999999,0.5951985714285714,Veulettes-sur-Mer,municipality,76736,,Veulettes-sur-Mer,,76450,Veulettes-sur-Mer,"76, Seine-Maritime, Normandie",76736,,,,ok
76450,Vittefleur,0.631764,49.814215,0.9336072727272727,0.6058363636363636,Vittefleur,municipality,76748,,Vittefleur,,76450,Vittefleur,"76, Seine-Maritime, Normandie",76748,,,,ok
76560,Amfreville les Champs,0.821308,49.699042,0.9278745454545454,0.6862492929292929,Amfreville-les-Champs,municipality,76006,,Amfreville-les-Champs,,76560,Amfreville-les-Champs,"76, Seine-Maritime, Normandie",76006,,,,ok
76560,Ancourteville sur Hericourt,0.661541,49.693668,0.9307754545454544,0.67445101010101,Ancourteville-sur-Héricourt,municipality,76009,,Ancourteville-sur-Héricourt,,76560,Ancourteville-sur-Héricourt,"76, Seine-Maritime, Normandie",76009,,,,ok
76560,Anveville,0.745177,49.700167,0.9301281818181818,0.5452745454545455,Anvéville,municipality,76023,,Anvéville,,76560,Anvéville,"76, Seine-Maritime, Normandie",76023,,,,ok
76560,Benesville,0.829277,49.747347,0.9274418181818181,0.5152932167832167,Bénesville,municipality,76077,,Bénesville,,76560,Bénesville,"76, Seine-Maritime, Normandie",76077,,,,ok
76560,Berville en Caux,0.834731,49.711446,0.9338554545454545,0.6137433057851238,Berville-en-Caux,municipality,76087,,Berville-en-Caux,,76560,Berville-en-Caux,"76, Seine-Maritime, Normandie",76087,,,,ok
76560,Boudeville,0.87683,49.721559,0.928571818181818,0.5398127272727272,Boudeville,municipality,76129,,Boudeville,,76560,Boudeville,"76, Seine-Maritime, Normandie",76129,,,,ok
76560,Bretteville St Laurent,0.869916,49.762919,0.7806506158357771,0.59225329004329,Bretteville-Saint-Laurent,municipality,76144,,Bretteville-Saint-Laurent,,76560,Bretteville-Saint-Laurent,"76, Seine-Maritime, Normandie",76144,,,,ok
76560,Canville les Deux Eglises,0.840693,49.773537,0.9302599999999999,0.7103027272727273,Canville-les-Deux-Églises,municipality,76158,,Canville-les-Deux-Églises,,76560,Canville-les-Deux-Églises,"76, Seine-Maritime, Normandie",76158,,,,ok
76560,Carville Pot de Fer,0.724043,49.718513,0.9250299999999999,0.5739963636363635,Carville-Pot-de-Fer,municipality,76161,,Carville-Pot-de-Fer,,76560,Carville-Pot-de-Fer,"76, Seine-Maritime, Normandie",76161,,,,ok
76560,Doudeville,0.784482,49.725499,0.9395936363636362,0.633854466403162,Doudeville,municipality,76219,,Doudeville,,76560,Doudeville,"76, Seine-Maritime, Normandie",76219,,,,ok
76560,Etalleville,0.823336,49.733463,0.9317227272727271,0.6349942424242424,Étalleville,municipality,76251,,Étalleville,,76560,Étalleville,"76, Seine-Maritime, Normandie",76251,,,,ok
76560,Fultot,0.785195,49.757987,0.9291581818181817,0.45984351778656124,Fultot,municipality,76293,,Fultot,,76560,Fultot,"76, Seine-Maritime, Normandie",76293,,,,ok
76560,Gonzeville,0.806616,49.763905,0.9263263636363636,0.6164217391304347,Gonzeville,municipality,76309,,Gonzeville,,76560,Gonzeville,"76, Seine-Maritime, Normandie",76309,,,,ok
76560,Harcanville,0.760551,49.705551,0.9326099999999999,0.5972123776223777,Harcanville,municipality,76340,,Harcanville,,76560,Harcanville,"76, Seine-Maritime, Normandie",76340,,,,ok
76560,Hericourt en Caux,0.703831,49.699257,0.93532,0.7247297178683385,Héricourt-en-Caux,municipality,76355,,Héricourt-en-Caux,,76560,Héricourt-en-Caux,"76, Seine-Maritime, Normandie",76355,,,,ok
76560,Oherville,0.680045,49.721252,0.9288554545454545,0.4831545454545454,Oherville,municipality,76483,,Oherville,,76560,Oherville,"76, Seine-Maritime, Normandie",76483,,,,ok
76560,Pretot Vicquemare,0.855669,49.733134,0.9289136363636363,0.668134926686217,Prétot-Vicquemare,municipality,76510,,Prétot-Vicquemare,,76560,Prétot-Vicquemare,"76, Seine-Maritime, Normandie",76510,,,,ok
76560,Reuville,0.863703,49.747593,0.92675,0.4485824675324675,Reuville,municipality,76524,,Reuville,,76560,Reuville,"76, Seine-Maritime, Normandie",76524,,,,ok
76560,Robertot,0.692276,49.715868,0.9286954545454545,0.5667819008264463,Robertot,municipality,76530,,Robertot,,76560,Robertot,"76, Seine-Maritime, Normandie",76530,,,,ok
76560,Routes,0.749007,49.730603,0.9298690909090909,0.44476121212121206,Routes,municipality,76542,,Routes,,76560,Routes,"76, Seine-Maritime, Normandie",76542,,,,ok
76560,St Laurent en Caux,0.889225,49.742175,0.7658507407407407,0.6164952941176471,Saint-Laurent-en-Caux,municipality,76597,,Saint-Laurent-en-Caux,,76560,Saint-Laurent-en-Caux,"76, Seine-Maritime, Normandie",76597,,,,ok
76560,Sommesnil,0.666284,49.712403,0.925781818181818,0.45324333333333333,Sommesnil,municipality,76679,,Sommesnil,,76560,Sommesnil,"76, Seine-Maritime, Normandie",76679,,,,ok
76560,Le Torp Mesnil,0.900556,49.721298,0.9319563636363636,0.5588841597796144,Le Torp-Mesnil,municipality,76699,,Le Torp-Mesnil,,76560,Le Torp-Mesnil,"76, Seine-Maritime, Normandie",76699,,,,ok
76560,Veauville les Quelles,0.708707,49.738714,0.9262572727272727,0.5688019008264463,Veauville-lès-Quelles,municipality,76730,,Veauville-lès-Quelles,,76560,Veauville-lès-Quelles,"76, Seine-Maritime, Normandie",76730,,,,ok
76560,Yvecrique,0.808247,49.690476,0.9334318181818181,0.5405039920948617,Yvecrique,municipality,76757,,Yvecrique,,76560,Yvecrique,"76, Seine-Maritime, Normandie",76757,,,,ok
76210,Bernieres,0.476479,49.621208,0.9334672727272726,0.5319096969696969,Bernières,municipality,76082,,Bernières,,76210,Bernières,"76, Seine-Maritime, Normandie",76082,,,,ok
76210,Beuzeville la Grenier,0.426884,49.593522,0.9364627272727272,0.6795760933660933,Beuzeville-la-Grenier,municipality,76090,,Beuzeville-la-Grenier,,76210,Beuzeville-la-Grenier,"76, Seine-Maritime, Normandie",76090,,,,ok
76210,Beuzevillette,0.543418,49.576749,0.9333236363636364,0.5916460501567398,Beuzevillette,municipality,76092,,Beuzevillette,,76210,Beuzevillette,"76, Seine-Maritime, Normandie",76092,,,,ok
76210,Bolbec,0.483302,49.575224,0.9466518181818181,0.5116081818181818,Bolbec,municipality,76114,,Bolbec,,76210,Bolbec,"76, Seine-Maritime, Normandie",76114,,,,ok
76210,Bolleville,0.566107,49.599075,0.9330827272727272,0.5516173426573425,Bolleville,municipality,76115,,Bolleville,,76210,Bolleville,"76, Seine-Maritime, Normandie",76115,,,,ok
76210,Gruchet le Valasse,0.492499,49.551491,0.9406045454545453,0.709151348973607,Gruchet-le-Valasse,municipality,76329,,Gruchet-le-Valasse,,76210,Gruchet-le-Valasse,"76, Seine-Maritime, Normandie",76329,,,,ok
76210,Lanquetot,0.528071,49.581693,0.936150909090909,0.5065850168350168,Lanquetot,municipality,76382,,Lanquetot,,76210,Lanquetot,"76, Seine-Maritime, Normandie",76382,,,,ok
76210,Lintot,0.566983,49.561386,0.93215,0.4644486147186147,Lintot,municipality,76388,,Lintot,,76210,Lintot,"76, Seine-Maritime, Normandie",76388,,,,ok
76210,Mirville,0.443504,49.605343,0.9307890909090908,0.5662037190082645,Mirville,municipality,76439,,Mirville,,76210,Mirville,"76, Seine-Maritime, Normandie",76439,,,,ok
76210,Nointot,0.470229,49.596299,0.9369172727272728,0.5828864646464647,Nointot,municipality,76468,,Nointot,,76210,Nointot,"76, Seine-Maritime, Normandie",76468,,,,ok
76210,Parc d Anxtot,0.393376,49.586947,0.9330672727272725,0.5935725974025974,Parc-d'Anxtot,municipality,76494,,Parc-d'Anxtot,,76210,Parc-d'Anxtot,"76, Seine-Maritime, Normandie",76494,,,,ok
76210,Raffetot,0.514489,49.599167,0.9323545454545454,0.5265869696969696,Raffetot,municipality,76518,,Raffetot,,76210,Raffetot,"76, Seine-Maritime, Normandie",76518,,,,ok
76210,Rouville,0.497858,49.627537,0.9332718181818181,0.5718373553719008,Rouville,municipality,76543,,Rouville,,76210,Rouville,"76, Seine-Maritime, Normandie",76543,,,,ok
76210,St Eustache la Foret,0.453693,49.553737,0.7797192789968652,0.5936873614190686,Saint-Eustache-la-Forêt,municipality,76576,,Saint-Eustache-la-Forêt,,76210,Saint-Eustache-la-Forêt,"76, Seine-Maritime, Normandie",76576,,,,ok
76210,St Jean de la Neuville,0.423417,49.574313,0.7870142521994135,0.6857560933660933,Saint-Jean-de-la-Neuville,municipality,76593,,Saint-Jean-de-la-Neuville,,76210,Saint-Jean-de-la-Neuville,"76, Seine-Maritime, Normandie",76593,,,,ok
76210,Trouville,0.598073,49.582241,0.933389090909091,0.6385024242424242,Trouville,municipality,76715,,Trouville,,76210,Trouville,"76, Seine-Maritime, Normandie",76715,,,,ok
94130,Nogent sur Marne,2.480913,48.837475,0.9514545454545453,0.6731803225806451,Nogent-sur-Marne,municipality,94052,,Nogent-sur-Marne,,94130,Nogent-sur-Marne,"94, Val-de-Marne, Île-de-France",94052,,,,ok
66740,Laroque des Alberes,2.930892,42.529275,0.9391254545454544,0.6505406060606059,Laroque-des-Albères,municipality,66093,,Laroque-des-Albères,,66740,Laroque-des-Albères,"66, Pyrénées-Orientales, Occitanie",66093,,,,ok
66740,Montesquieu des Alberes,2.868538,42.532387,0.9366036363636363,0.7155846411483253,Montesquieu-des-Albères,municipality,66115,,Montesquieu-des-Albères,,66740,Montesquieu-des-Albères,"66, Pyrénées-Orientales, Occitanie",66115,,,,ok
66740,St Genis des Fontaines,2.926141,42.545603,0.793729706744868,0.5836028099173554,Saint-Génis-des-Fontaines,municipality,66175,,Saint-Génis-des-Fontaines,,66740,Saint-Génis-des-Fontaines,"66, Pyrénées-Orientales, Occitanie",66175,,,,ok
66740,Villelongue Dels Monts,2.900714,42.528137,0.9383190909090908,0.6680506293706293,Villelongue-dels-Monts,municipality,66225,,Villelongue-dels-Monts,,66740,Villelongue-dels-Monts,"66, Pyrénées-Orientales, Occitanie",66225,,,,ok
77600,Bussy St Georges,2.715779,48.839173,0.7685863636363636,0.5613459595959596,Bussy-Saint-Georges,municipality,77058,,Bussy-Saint-Georges,,77600,Bussy-Saint-Georges,"77, Seine-et-Marne, Île-de-France",77058,,,,ok
77600,Bussy St Martin,2.677384,48.844311,0.7445133333333332,0.5370083116883116,Bussy-Saint-Martin,municipality,77059,,Bussy-Saint-Martin,,77600,Bussy-Saint-Martin,"77, Seine-et-Marne, Île-de-France",77059,,,,ok
77600,Bussy St Martin,2.677384,48.844311,0.7445133333333332,0.5370083116883116,Bussy-Saint-Martin,municipality,77059,,Bussy-Saint-Martin,,77600,Bussy-Saint-Martin,"77, Seine-et-Marne, Île-de-France",77059,,,,ok
77600,Chanteloup en Brie,2.741246,48.859862,0.941990909090909,0.6334535064935065,Chanteloup-en-Brie,municipality,77085,,Chanteloup-en-Brie,,77600,Chanteloup-en-Brie,"77, Seine-et-Marne, Île-de-France",77085,,,,ok
77600,Conches sur Gondoire,2.718875,48.859507,0.9380263636363636,0.6379215789473685,Conches-sur-Gondoire,municipality,77124,,Conches-sur-Gondoire,,77600,Conches-sur-Gondoire,"77, Seine-et-Marne, Île-de-France",77124,,,,ok
77600,Guermantes,2.7107,48.852431,0.9361354545454545,0.60892604743083,Guermantes,municipality,77221,,Guermantes,,77600,Guermantes,"77, Seine-et-Marne, Île-de-France",77221,,,,ok
77600,Jossigny,2.759618,48.840128,0.9334954545454545,0.5277287878787877,Jossigny,municipality,77237,,Jossigny,,77600,Jossigny,"77, Seine-et-Marne, Île-de-France",77237,,,,ok
03400,Gennetines,3.403349,46.632201,0.9334099999999999,0.5663890909090908,Gennetines,municipality,03121,,Gennetines,,03400,Gennetines,"03, Allier, Auvergne-Rhône-Alpes",03121,,,,ok
03400,St Ennemond,3.397891,46.693099,0.7060136363636363,0.45985696969696965,Saint-Ennemond,municipality,03229,,Saint-Ennemond,,03400,Saint-Ennemond,"03, Allier, Auvergne-Rhône-Alpes",03229,,,,ok
03400,Toulon sur Allier,3.356768,46.519568,0.9361709090909089,0.7709716498316498,Toulon-sur-Allier,municipality,03286,,Toulon-sur-Allier,,03400,Toulon-sur-Allier,"03, Allier, Auvergne-Rhône-Alpes",03286,,,,ok
03400,Yzeure,3.360501,46.567639,0.9470136363636362,0.5287441125541126,Yzeure,municipality,03321,,Yzeure,,03400,Yzeure,"03, Allier, Auvergne-Rhône-Alpes",03321,,,,ok
92140,Clamart,2.25475,48.796102,0.9536690909090909,0.5814614285714285,Clamart,municipality,92023,,Clamart,,92140,Clamart,"92, Hauts-de-Seine, Île-de-France",92023,,,,ok
92140,Clamart,2.25475,48.796102,0.9536690909090909,0.5814614285714285,Clamart,municipality,92023,,Clamart,,92140,Clamart,"92, Hauts-de-Seine, Île-de-France",92023,,,,ok
78100,St Germain en Laye,2.112812,48.924335,0.7843861952861951,0.5862503349282296,Saint-Germain-en-Laye,municipality,78551,,Saint-Germain-en-Laye,,78100,Saint-Germain-en-Laye,"78, Yvelines, Île-de-France",78551,,,,ok
75019,Paris 19,2.391978,48.876365,0.64411,0.5804305194805194,Voie S/19 75019 Paris,street,75119_X529,,Voie S/19,Voie S/19,75019,Paris,"75, Paris, Île-de-France",75119,,,Paris 19e Arrondissement,ok
91270,Vigneux sur Seine,2.426026,48.705366,0.9511127272727272,0.668000606060606,Vigneux-sur-Seine,municipality,91657,,Vigneux-sur-Seine,,91270,Vigneux-sur-Seine,"91, Essonne, Île-de-France",91657,,,,ok
92200,Neuilly sur Seine,2.265869,48.886191,0.954050909090909,0.7049312903225806,Neuilly-sur-Seine,municipality,92051,,Neuilly-sur-Seine,,92200,Neuilly-sur-Seine,"92, Hauts-de-Seine, Île-de-France",92051,,,,ok
75017,Paris 17,2.307168,48.880329,0.6486518181818182,0.6223560173160173,Voie S/17 75017 Paris,street,75117_X527,,Voie S/17,Voie S/17,75017,Paris,"75, Paris, Île-de-France",75117,,,Paris 17e Arrondissement,ok
75016,Paris 16,2.26192,48.842752,0.5778577922077921,0.5753141558441558,Voie C/16 75016 Paris,street,75116_X196,,Voie C/16,Voie C/16,75016,Paris,"75, Paris, Île-de-France",75116,,,Paris 16e Arrondissement,ok
75008,Paris 08,2.31129,48.873998,0.46840768595041316,0.46627132231404955,Voie F/8 75008 Paris,street,75108_axqoxv,,Voie F/8,Voie F/8,75008,Paris,"75, Paris, Île-de-France",75108,,,Paris 8e Arrondissement,ok
75007,Paris 07,2.309277,48.860163,0.4660649586776859,0.4660649586776859,Voie E/7 75007 Paris,street,75107_s6zv5o,,Voie E/7,Voie E/7,75007,Paris,"75, Paris, Île-de-France",75107,,,Paris 7e Arrondissement,ok
94230,Cachan,2.331515,48.791346,0.9510454545454544,0.51446,Cachan,municipality,94016,,Cachan,,94230,Cachan,"94, Val-de-Marne, Île-de-France",94016,,,,ok
92260,Fontenay aux Roses,2.287978,48.789528,0.9500863636363637,0.7338595307917888,Fontenay-aux-Roses,municipality,92032,,Fontenay-aux-Roses,,92260,Fontenay-aux-Roses,"92, Hauts-de-Seine, Île-de-France",92032,,,,ok
92220,Bagneux,2.310213,48.7978,0.9526663636363636,0.5528268595041321,Bagneux,municipality,92007,,Bagneux,,92220,Bagneux,"92, Hauts-de-Seine, Île-de-France",92007,,,,ok
75014,Paris 14,2.332835,48.839497,0.5791277922077921,0.5776805194805193,Voie B/14 75014 Paris,street,75114_X134,,Voie B/14,Voie B/14,75014,Paris,"75, Paris, Île-de-France",75114,,,Paris 14e Arrondissement,ok
52000,Brethenay,5.134561,48.15594,0.9311690909090908,0.5454218181818182,Brethenay,municipality,52072,,Brethenay,,52000,Brethenay,"52, Haute-Marne, Grand Est",52072,,,,ok
52000,Buxieres les Villiers,5.039204,48.105923,0.9284663636363635,0.61913,Buxières-lès-Villiers,municipality,52087,,Buxières-lès-Villiers,,52000,Buxières-lès-Villiers,"52, Haute-Marne, Grand Est",52087,,,,ok
52000,Chaumont,5.129976,48.104307,0.9494845454545453,0.5716303557312252,Chaumont,municipality,52121,,Chaumont,,52000,Chaumont,"52, Haute-Marne, Grand Est",52121,,,,ok
52000,Chaumont,5.129976,48.104307,0.9494845454545453,0.5716303557312252,Chaumont,municipality,52121,,Chaumont,,52000,Chaumont,"52, Haute-Marne, Grand Est",52121,,,,ok
52000,Chamarandes Choignes,5.16279,48.098906,0.9356390909090909,0.6738904040404039,Chamarandes-Choignes,municipality,52125,,Chamarandes-Choignes,,52000,Chamarandes-Choignes,"52, Haute-Marne, Grand Est",52125,,,,ok
52000,Chamarandes Choignes,5.16279,48.098906,0.9356390909090909,0.6738904040404039,Chamarandes-Choignes,municipality,52125,,Chamarandes-Choignes,,52000,Chamarandes-Choignes,"52, Haute-Marne, Grand Est",52125,,,,ok
52000,Chamarandes Choignes,5.16279,48.098906,0.9356390909090909,0.6738904040404039,Chamarandes-Choignes,municipality,52125,,Chamarandes-Choignes,,52000,Chamarandes-Choignes,"52, Haute-Marne, Grand Est",52125,,,,ok
52000,Condes,5.144677,48.143891,0.9299781818181818,0.4470057575757575,Condes,municipality,52141,,Condes,,52000,Condes,"52, Haute-Marne, Grand Est",52141,,,,ok
52000,Euffigneix,5.047755,48.131293,0.9300536363636362,0.5607446153846153,Euffigneix,municipality,52193,,Euffigneix,,52000,Euffigneix,"52, Haute-Marne, Grand Est",52193,,,,ok
52000,Foulain,5.209981,48.037744,0.9338227272727271,0.5329086776859504,Foulain,municipality,52205,,Foulain,,52000,Foulain,"52, Haute-Marne, Grand Est",52205,,,,ok
52000,Jonchery,5.077993,48.139064,0.9353763636363637,0.5352442424242423,Jonchery,municipality,52251,,Jonchery,,52000,Jonchery,"52, Haute-Marne, Grand Est",52251,,,,ok
52000,Jonchery,5.077993,48.139064,0.9353763636363637,0.5352442424242423,Jonchery,municipality,52251,,Jonchery,,52000,Jonchery,"52, Haute-Marne, Grand Est",52251,,,,ok
52000,Jonchery,5.077993,48.139064,0.9353763636363637,0.5352442424242423,Jonchery,municipality,52251,,Jonchery,,52000,Jonchery,"52, Haute-Marne, Grand Est",52251,,,,ok
52000,Laville aux Bois,5.230916,48.095771,0.9289136363636363,0.6341036363636363,Laville-aux-Bois,municipality,52276,,Laville-aux-Bois,,52000,Laville-aux-Bois,"52, Haute-Marne, Grand Est",52276,,,,ok
52000,Luzy sur Marne,5.184642,48.056802,0.9297263636363636,0.6267131034482758,Luzy-sur-Marne,municipality,52297,,Luzy-sur-Marne,,52000,Luzy-sur-Marne,"52, Haute-Marne, Grand Est",52297,,,,ok
52000,Neuilly sur Suize,5.14852,48.050755,0.9300236363636363,0.6180125668449198,Neuilly-sur-Suize,municipality,52349,,Neuilly-sur-Suize,,52000,Neuilly-sur-Suize,"52, Haute-Marne, Grand Est",52349,,,,ok
52000,Riaucourt,5.15091,48.177507,0.9317127272727271,0.5679057575757576,Riaucourt,municipality,52421,,Riaucourt,,52000,Riaucourt,"52, Haute-Marne, Grand Est",52421,,,,ok
52000,Semoutiers Montsaon,5.051148,48.061289,0.934040909090909,0.6640793506493505,Semoutiers-Montsaon,municipality,52469,,Semoutiers-Montsaon,,52000,Semoutiers-Montsaon,"52, Haute-Marne, Grand Est",52469,,,,ok
52000,Semoutiers Montsaon,5.051148,48.061289,0.934040909090909,0.6640793506493505,Semoutiers-Montsaon,municipality,52469,,Semoutiers-Montsaon,,52000,Semoutiers-Montsaon,"52, Haute-Marne, Grand Est",52469,,,,ok
52000,Treix,5.188324,48.147824,0.9285299999999999,0.3989690909090909,Treix,municipality,52494,,Treix,,52000,Treix,"52, Haute-Marne, Grand Est",52494,,,,ok
52000,Verbiesles,5.185683,48.070576,0.9305254545454545,0.5797672727272727,Verbiesles,municipality,52514,,Verbiesles,,52000,Verbiesles,"52, Haute-Marne, Grand Est",52514,,,,ok
52000,Villiers le Sec,5.066112,48.106477,0.9340654545454544,0.6334684457478005,Villiers-le-Sec,municipality,52535,,Villiers-le-Sec,,52000,Villiers-le-Sec,"52, Haute-Marne, Grand Est",52535,,,,ok
35520,La Chapelle des Fougeretz,-1.736766,48.178115,0.9424399999999998,0.7777652825552825,La Chapelle-des-Fougeretz,municipality,35059,,La Chapelle-des-Fougeretz,,35520,La Chapelle-des-Fougeretz,"35, Ille-et-Vilaine, Bretagne",35059,,,,ok
35520,Melesse,-1.688582,48.219365,0.944509090909091,0.6553169696969696,Melesse,municipality,35173,,Melesse,,35520,Melesse,"35, Ille-et-Vilaine, Bretagne",35173,,,,ok
35520,La Meziere,-1.74647,48.213325,0.9427336363636363,0.635373557312253,La Mézière,municipality,35177,,La Mézière,,35520,La Mézière,"35, Ille-et-Vilaine, Bretagne",35177,,,,ok
35520,Montreuil le Gast,-1.718324,48.243973,0.9386899999999999,0.7280988087774294,Montreuil-le-Gast,municipality,35193,,Montreuil-le-Gast,,35520,Montreuil-le-Gast,"35, Ille-et-Vilaine, Bretagne",35193,,,,ok
75008,Paris 08,2.31129,48.873998,0.46840768595041316,0.46627132231404955,Voie F/8 75008 Paris,street,75108_axqoxv,,Voie F/8,Voie F/8,75008,Paris,"75, Paris, Île-de-France",75108,,,Paris 8e Arrondissement,ok
75002,Paris 02,2.347,48.859,0.5460957575757576,0.48889169960474305,Paris,municipality,75056,,Paris,,75001,Paris,"75, Paris, Île-de-France",75056,,,,ok
75009,Paris 09,2.33371,48.87727,0.4698176859504131,0.46547495867768596,Voie D/9 75009 Paris,street,75109_3400,,Voie D/9,Voie D/9,75009,Paris,"75, Paris, Île-de-France",75109,,,Paris 9e Arrondissement,ok
10160,Aix Villemaur Palis,3.729189,48.225703,0.9411118181818181,0.6810475935828877,Aix-Villemaur-Pâlis,municipality,10003,,Aix-Villemaur-Pâlis,,10160,Aix-Villemaur-Pâlis,"10, Aube, Grand Est",10003,,,,ok
10160,Berulle,3.676049,48.160882,0.9281572727272726,0.5180850413223139,Bérulle,municipality,10042,,Bérulle,,10160,Bérulle,"10, Aube, Grand Est",10042,,,,ok
10160,Maraye en Othe,3.877496,48.164648,0.9316918181818181,0.7648325541125541,Maraye-en-Othe,municipality,10222,,Maraye-en-Othe,,10160,Maraye-en-Othe,"10, Aube, Grand Est",10222,,,,ok
10160,Nogent en Othe,3.805058,48.141621,0.9216936363636362,0.591511212121212,Nogent-en-Othe,municipality,10266,,Nogent-en-Othe,,10160,Nogent-en-Othe,"10, Aube, Grand Est",10266,,,,ok
10160,Paisy Cosdon,3.702085,48.219624,0.9305381818181818,0.6685375757575758,Paisy-Cosdon,municipality,10276,,Paisy-Cosdon,,10160,Paisy-Cosdon,"10, Aube, Grand Est",10276,,,,ok
10160,Planty,3.65257,48.270985,0.9288945454545454,0.4928827272727272,Planty,municipality,10290,,Planty,,10160,Planty,"10, Aube, Grand Est",10290,,,,ok
10160,Rigny le Ferron,3.629418,48.206301,0.9303736363636363,0.6570865203761755,Rigny-le-Ferron,municipality,10319,,Rigny-le-Ferron,,10160,Rigny-le-Ferron,"10, Aube, Grand Est",10319,,,,ok
10160,St Benoist sur Vanne,3.67282,48.234818,0.7721929153605015,0.612673316953317,Saint-Benoist-sur-Vanne,municipality,10335,,Saint-Benoist-sur-Vanne,,10160,Saint-Benoist-sur-Vanne,"10, Aube, Grand Est",10335,,,,ok
10160,St Mards en Othe,3.79175,48.170282,0.7516636363636363,0.641350606060606,Saint-Mards-en-Othe,municipality,10350,,Saint-Mards-en-Othe,,10160,Saint-Mards-en-Othe,"10, Aube, Grand Est",10350,,,,ok
10160,Villemoiron en Othe,3.78281,48.19813,0.9283372727272727,0.6606693506493506,Villemoiron-en-Othe,municipality,10417,,Villemoiron-en-Othe,,10160,Villemoiron-en-Othe,"10, Aube, Grand Est",10417,,,,ok
10160,Vulaines,3.622028,48.233361,0.9287763636363636,0.5477712648221343,Vulaines,municipality,10444,,Vulaines,,10160,Vulaines,"10, Aube, Grand Est",10444,,,,ok
33840,Captieux,-0.256881,44.261682,0.9368227272727272,0.6591941148325359,Captieux,municipality,33095,,Captieux,,33840,Captieux,"33, Gironde, Nouvelle-Aquitaine",33095,,,,ok
33840,Escaudes,-0.2084,44.31647,0.9273063636363637,0.5351994466403162,Escaudes,municipality,33155,,Escaudes,,33840,Escaudes,"33, Gironde, Nouvelle-Aquitaine",33155,,,,ok
33840,Giscos,-0.186842,44.270381,0.9278509090909091,0.4999441125541125,Giscos,municipality,33188,,Giscos,,33840,Giscos,"33, Gironde, Nouvelle-Aquitaine",33188,,,,ok
33840,Goualade,-0.131674,44.318083,0.9249845454545453,0.6099527272727272,Goualade,municipality,33190,,Goualade,,33840,Goualade,"33, Gironde, Nouvelle-Aquitaine",33190,,,,ok
33840,Lartigue,-0.096482,44.252171,0.9211936363636362,0.5836527272727272,Lartigue,municipality,33232,,Lartigue,,33840,Lartigue,"33, Gironde, Nouvelle-Aquitaine",33232,,,,ok
33840,Lerm et Musset,-0.152107,44.332347,0.9321409090909091,0.6218121943573667,Lerm-et-Musset,municipality,33239,,Lerm-et-Musset,,33840,Lerm-et-Musset,"33, Gironde, Nouvelle-Aquitaine",33239,,,,ok
33840,Lucmau,-0.304144,44.343554,0.9291581818181817,0.47468316017316015,Lucmau,municipality,33255,,Lucmau,,33840,Lucmau,"33, Gironde, Nouvelle-Aquitaine",33255,,,,ok
33840,St Michel de Castelnau,-0.112715,44.283961,0.7825124340175953,0.5704972727272727,Saint-Michel-de-Castelnau,municipality,33450,,Saint-Michel-de-Castelnau,,33840,Saint-Michel-de-Castelnau,"33, Gironde, Nouvelle-Aquitaine",33450,,,,ok
46250,Les Arques,1.242189,44.598136,0.9286136363636363,0.5277241414141414,Les Arques,municipality,46008,,Les Arques,,46250,Les Arques,"46, Lot, Occitanie",46008,,,,ok
46250,Cazals,1.221294,44.646535,0.9335172727272727,0.5094613852813853,Cazals,municipality,46066,,Cazals,,46250,Cazals,"46, Lot, Occitanie",46066,,,,ok
